{
    "code": 100,
    "msg": "成功",
    "data": {
        "list": [
            {
                "id": "7649",
                "name": "魅力名猫专营店",
                "seo_keywords": "魅力名猫专营店,沈阳魅力名猫专营店,沈阳宠物店铺",
                "seo_description": "沈阳宠物店铺魅力名猫专营店是一家专为宠物猫服务的店铺",
                "admin_id": "1",
                "update_admin_id": "5",
                "phone": "",
                "service_tag_ids": "40",
                "service_tags": "猫舍",
                "picture": "http://img.petshow.cc/pet_show/2015_08/9ca50e124243e5ec595c4833ac03cf5c.png",
                "latitude": "41.83659900000000000",
                "longitude": "123.38878000000000000",
                "province": "辽宁省",
                "city": "沈阳市",
                "district": "皇姑区",
                "street": "",
                "street_number": "",
                "formatted_address": "崇山西路38-1号楼",
                "surround": "鑫盛铝塑门窗崇山西路,姐弟俩土豆粉",
                "business_hour": "尚无营业时间",
                "level": "30",
                "source": "http://m.dianping.com/shop/10844584",
                "intro": "",
                "is_delete": "0",
                "create_time": "2015-07-09 17:00:43",
                "update_time": "2015-08-05 17:24:04"
            },
            {
                "id": "7469",
                "name": "逍遥猫舍",
                "seo_keywords": "逍遥猫舍,沈阳逍遥猫舍,沈阳猫舍",
                "seo_description": "沈阳猫舍逍遥猫舍是一家专为宠物猫服务的猫舍",
                "admin_id": "1",
                "update_admin_id": "5",
                "phone": "13940241881",
                "service_tag_ids": "40",
                "service_tags": "猫舍",
                "picture": "http://img.petshow.cc/pet_show/2015_08/20e069cfd85cc00af5989415802ae899.png",
                "latitude": "41.86253200000000000",
                "longitude": "123.40547900000000000",
                "province": "辽宁省",
                "city": "沈阳市",
                "district": "皇姑区",
                "street": "",
                "street_number": "",
                "formatted_address": "怒江北街39-1号142（白山路南侧）",
                "surround": "杨军美发工作室,幸福盒饭",
                "business_hour": "全年无休",
                "level": "35",
                "source": "http://m.dianping.com/shop/10014317",
                "intro": "",
                "is_delete": "0",
                "create_time": "2015-07-09 16:59:31",
                "update_time": "2015-08-17 17:28:03"
            },
            {
                "id": "7463",
                "name": "幽幽爱猫屋",
                "seo_keywords": "幽幽爱猫屋,沈阳幽幽爱猫屋,沈阳宠物店铺",
                "seo_description": "沈阳宠物店铺幽幽爱猫屋是一家专为宠物服务的店铺",
                "admin_id": "1",
                "update_admin_id": "5",
                "phone": "02428666757",
                "service_tag_ids": "40",
                "service_tags": "猫舍",
                "picture": "http://img.petshow.cc/pet_show/2015_08/f6e45a33bed4d0644e532fc098bcc11f.jpg",
                "latitude": "41.84516400000000000",
                "longitude": "123.44747100000000000",
                "province": "辽宁省",
                "city": "沈阳市",
                "district": "皇姑区",
                "street": "",
                "street_number": "",
                "formatted_address": "陵东街10甲3号（近省政府游泳馆）",
                "surround": "辽宁省政府机关事务管理局房产处,日嘉美发",
                "business_hour": "每天 09:00 - 24:00",
                "level": "35",
                "source": "http://m.dianping.com/shop/17620278",
                "intro": "",
                "is_delete": "0",
                "create_time": "2015-07-09 16:59:29",
                "update_time": "2015-08-17 17:56:07"
            },
            {
                "id": "7219",
                "name": "喵了个咪名猫馆",
                "seo_keywords": "喵了个咪名猫馆,南京喵了个咪名猫馆,南京猫舍",
                "seo_description": "南京猫舍喵了个咪名猫馆是一家专为宠物猫服务的会馆",
                "admin_id": "1",
                "update_admin_id": "5",
                "phone": "",
                "service_tag_ids": "40",
                "service_tags": "猫舍",
                "picture": "http://img.petshow.cc/pet_show/2015_08/ea7543e2f2907931ab63e1445f24a676.png",
                "latitude": "32.05245200000000000",
                "longitude": "118.79313200000000000",
                "province": "江苏省",
                "city": "南京市",
                "district": "秦淮区",
                "street": "",
                "street_number": "",
                "formatted_address": "长江路估衣廊8号106（长江花园）",
                "surround": "江苏好未来教育培训中心,江苏广电学习频道培训基地",
                "business_hour": "尚无营业时间",
                "level": "30",
                "source": "http://m.dianping.com/shop/18363367",
                "intro": "",
                "is_delete": "0",
                "create_time": "2015-07-06 10:03:02",
                "update_time": "2015-08-29 16:37:58"
            },
            {
                "id": "7174",
                "name": "我爱我猫名猫馆",
                "seo_keywords": "我爱我猫名猫馆,南京我爱我猫名猫馆,南京猫舍",
                "seo_description": "南京猫舍我爱我猫名猫馆是一家专为宠物猫服务的店铺",
                "admin_id": "1",
                "update_admin_id": "5",
                "phone": "15261889091 ",
                "service_tag_ids": "40",
                "service_tags": "猫舍",
                "picture": "http://img.petshow.cc/pet_show/2015_09/ff6a6230893219099d06dee6c9dc8a28.png",
                "latitude": "32.08388400000000000",
                "longitude": "118.78444800000000000",
                "province": "江苏省",
                "city": "南京市",
                "district": "鼓楼区",
                "street": "",
                "street_number": "",
                "formatted_address": "新模范马路26-1号临",
                "surround": "青石村小区,哈姆特",
                "business_hour": "尚无营业时间",
                "level": "30",
                "source": "http://m.dianping.com/shop/17639122",
                "intro": "",
                "is_delete": "0",
                "create_time": "2015-07-06 10:03:01",
                "update_time": "2015-09-01 16:59:02"
            },
            {
                "id": "6862",
                "name": "爱儿宠物",
                "seo_keywords": "宠物猫,猫粮,爱儿宠物",
                "seo_description": "四川省成都市爱儿宠物",
                "admin_id": "1",
                "update_admin_id": "10",
                "phone": "",
                "service_tag_ids": "40,22",
                "service_tags": "猫舍,猫粮",
                "picture": "http://img.petshow.cc/pet_show/2015_09/d844404e7e754c9a43154412aa702997.jpg",
                "latitude": "30.68126300000000000",
                "longitude": "104.03811300000000000",
                "province": "四川省",
                "city": "成都市",
                "district": "青羊区",
                "street": "",
                "street_number": "",
                "formatted_address": "石人东路1号附6号",
                "surround": "特色鱼米线",
                "business_hour": "尚无营业时间",
                "level": "32",
                "source": "http://m.dianping.com/shop/11488360",
                "intro": "",
                "is_delete": "0",
                "create_time": "2015-07-06 10:02:54",
                "update_time": "2015-09-04 17:42:36"
            },
            {
                "id": "6352",
                "name": "蜜糖猫舍",
                "seo_keywords": "蜜糖猫舍,成都市蜜糖猫舍,成都市蜜糖猫舍猫舍",
                "seo_description": "成都市金牛区抚琴百寿路7号蜜糖猫舍猫舍",
                "admin_id": "1",
                "update_admin_id": "8",
                "phone": "15388172172",
                "service_tag_ids": "40,16,22",
                "service_tags": "猫舍,宠物用品,猫粮",
                "picture": "http://img.petshow.cc/pet_show/2015_07/96a36753f9d78eec2a8a3bb2a6c5c389.jpg",
                "latitude": "30.67283796185398000",
                "longitude": "104.03598301810894000",
                "province": "四川省",
                "city": "成都市",
                "district": "金牛区",
                "street": "抚琴百寿路",
                "street_number": "抚琴百寿路7号",
                "formatted_address": "抚琴百寿路7号",
                "surround": "",
                "business_hour": "尚无营业时间",
                "level": "35",
                "source": "http://m.dianping.com/shop/17200995",
                "intro": "成都市金牛区抚琴百寿路7号蜜糖猫舍",
                "is_delete": "0",
                "create_time": "2015-07-06 10:02:44",
                "update_time": "2015-07-29 11:04:59"
            },
            {
                "id": "6005",
                "name": "西子纯猫馆",
                "seo_keywords": "西子纯猫馆,杭州西子纯猫馆,杭州猫舍",
                "seo_description": "杭州猫舍西子纯猫馆是一家专为宠物猫服务的店铺",
                "admin_id": "1",
                "update_admin_id": "5",
                "phone": "057188389210",
                "service_tag_ids": "40",
                "service_tags": "猫舍",
                "picture": "http://img.petshow.cc/pet_show/2015_07/69c305458ca183116b3bc12e65aff251.jpg",
                "latitude": "30.39367602695557500",
                "longitude": "120.24263240342408000",
                "province": "浙江省",
                "city": "杭州市",
                "district": "余杭区",
                "street": "",
                "street_number": "",
                "formatted_address": "余杭区欢乐大道天都城（近临丁路）",
                "surround": "三好大药房,坤坤果业天都店",
                "business_hour": "每天 10: 00 -- 20: 00",
                "level": "30",
                "source": "http://m.dianping.com/shop/18489248",
                "intro": "",
                "is_delete": "0",
                "create_time": "2015-07-06 10:02:37",
                "update_time": "2015-07-29 11:04:59"
            },
            {
                "id": "5440",
                "name": "MG猫舍",
                "seo_keywords": "猫舍,MG猫舍,深圳MG猫舍",
                "seo_description": "广东深圳MG猫舍",
                "admin_id": "1",
                "update_admin_id": "10",
                "phone": "13530232399",
                "service_tag_ids": "40,22,195",
                "service_tags": "猫舍,猫粮,宠物售卖",
                "picture": "http://img.petshow.cc/pet_show/2015_11/9086d4ae548281ebeb2de4ac0dfa0e64.jpg",
                "latitude": "22.57519600000000000",
                "longitude": "114.12113400000000000",
                "province": "广东省",
                "city": "深圳市",
                "district": "罗湖区",
                "street": "宝岗路",
                "street_number": "田心村95号104",
                "formatted_address": "宝岗路田心村95号104",
                "surround": "互盈电脑",
                "business_hour": "每天 10:00 - 22:00",
                "level": "50",
                "source": "http://m.dianping.com/shop/17703902",
                "intro": "",
                "is_delete": "0",
                "create_time": "2015-07-06 10:02:23",
                "update_time": "2015-07-29 11:04:59"
            },
            {
                "id": "5424",
                "name": "吉祥猫舍",
                "seo_keywords": "吉祥猫舍,深圳吉祥猫舍,深圳吉祥猫舍",
                "seo_description": "广东深圳吉祥猫舍",
                "admin_id": "1",
                "update_admin_id": "10",
                "phone": "18123699829",
                "service_tag_ids": "40,21,16,6,22",
                "service_tags": "猫舍,洗澡,宠物用品,寄养,猫粮",
                "picture": "http://img.petshow.cc/pet_show/2015_11/898d2ae8e02bdeb2606a10ebe15dd60a.jpg",
                "latitude": "22.77468700000000000",
                "longitude": "114.30437800000000000",
                "province": "广东省",
                "city": "深圳市",
                "district": "龙岗区",
                "street": "西湖苑",
                "street_number": "",
                "formatted_address": "龙岗区西湖苑",
                "surround": "坪地中学",
                "business_hour": "尚无营业时间",
                "level": "30",
                "source": "http://m.dianping.com/shop/18280686",
                "intro": "",
                "is_delete": "0",
                "create_time": "2015-07-06 10:02:23",
                "update_time": "2015-07-29 11:04:59"
            },
            {
                "id": "5307",
                "name": "宅喵儿",
                "seo_keywords": "猫舍,宅喵儿",
                "seo_description": "广东省深圳市宅喵儿",
                "admin_id": "1",
                "update_admin_id": "10",
                "phone": "13530232399",
                "service_tag_ids": "40,21,182,195",
                "service_tags": "猫舍,洗澡,剪毛,宠物售卖",
                "picture": "http://img.petshow.cc/pet_show/2015_10/f9ec59ff106bb7596b5368ff0c4a5658.jpg",
                "latitude": "22.57354400000000000",
                "longitude": "114.11874500000000000",
                "province": "广东省",
                "city": "深圳市",
                "district": "罗湖区",
                "street": "宝岗路",
                "street_number": "田心村95A104",
                "formatted_address": "宝岗路田心村95A104（近笋岗村）",
                "surround": "笋岗村",
                "business_hour": "每天 10:00 - 23:00",
                "level": "50",
                "source": "http://m.dianping.com/shop/17703842",
                "intro": "宅喵儿宠物店是经工商局注册,专门从事高端宠物猫生产,销售及相关美容护理",
                "is_delete": "0",
                "create_time": "2015-07-06 10:02:21",
                "update_time": "2015-07-29 11:04:59"
            },
            {
                "id": "5293",
                "name": "宠宠猫吧",
                "seo_keywords": "宠物店,宠宠猫吧",
                "seo_description": "广东省深圳市宠宠猫吧",
                "admin_id": "1",
                "update_admin_id": "10",
                "phone": "",
                "service_tag_ids": "40,6,22,195",
                "service_tags": "猫舍,寄养,猫粮,宠物售卖",
                "picture": "http://img.petshow.cc/pet_show/2015_10/847cffa48b253afc26c9a4310b646d78.jpg",
                "latitude": "22.54954700000000000",
                "longitude": "113.91660600000000000",
                "province": "广东省",
                "city": "深圳市",
                "district": "南山区",
                "street": "月亮湾大道",
                "street_number": "3008号",
                "formatted_address": "月亮湾大道3008号荷兰花卉小镇内（近星海名城）",
                "surround": "星海名城",
                "business_hour": "尚无营业时间",
                "level": "48",
                "source": "http://m.dianping.com/shop/5544949",
                "intro": "宠宠猫吧是深圳网店，主营宠物",
                "is_delete": "0",
                "create_time": "2015-07-06 10:02:20",
                "update_time": "2015-07-29 11:04:59"
            },
            {
                "id": "5247",
                "name": "YU.喵会所",
                "seo_keywords": "宠物美容,YU.喵会所",
                "seo_description": "广东省深圳市",
                "admin_id": "1",
                "update_admin_id": "10",
                "phone": "13751188234 ",
                "service_tag_ids": "40,21,192,6",
                "service_tags": "猫舍,洗澡,驱虫,寄养",
                "picture": "http://img.petshow.cc/pet_show/2015_09/0421b9f25244394467cb20f8836d53d9.jpg",
                "latitude": "22.57864100000000000",
                "longitude": "114.07079800000000000",
                "province": "广东省",
                "city": "深圳市",
                "district": "福田区",
                "street": "林凯丰路",
                "street_number": "28",
                "formatted_address": "上梅林凯丰路28号富国工业区2栋5楼",
                "surround": "梅华小学",
                "business_hour": "10:00-22:30",
                "level": "49",
                "source": "http://m.dianping.com/shop/20698401",
                "intro": "",
                "is_delete": "0",
                "create_time": "2015-07-06 10:02:19",
                "update_time": "2015-07-29 11:04:59"
            },
            {
                "id": "5218",
                "name": "宠森猫舍",
                "seo_keywords": "宠物店,猫舍,宠森猫舍",
                "seo_description": "广东省深圳市宠森猫舍",
                "admin_id": "1",
                "update_admin_id": "10",
                "phone": "18926035223 ",
                "service_tag_ids": "40,16,22,195",
                "service_tags": "猫舍,宠物用品,猫粮,宠物售卖",
                "picture": "http://img.petshow.cc/pet_show/2015_09/c4da1276e78bd31bfeae5a05607e5b52.jpg",
                "latitude": "22.54879600000000000",
                "longitude": "114.14250700000000000",
                "province": "广东省",
                "city": "深圳市",
                "district": "罗湖区",
                "street": "",
                "street_number": "",
                "formatted_address": "沿河南路宠物城1号铺(汇鑫花园)（近文锦渡）",
                "surround": "文锦渡",
                "business_hour": "9:00—21:00",
                "level": "50",
                "source": "http://m.dianping.com/shop/13799214",
                "intro": "",
                "is_delete": "0",
                "create_time": "2015-07-06 10:02:19",
                "update_time": "2015-07-29 11:04:59"
            },
            {
                "id": "5085",
                "name": "Any Mew PETSSTORE",
                "seo_keywords": "Any Mew PETSSTORE,广州市Any Mew PETSSTORE,广州市宠物猫舍",
                "seo_description": "AnyMew PETS STORE是一家从事纯种猫进口,销售, 俱乐部于一体的宠物猫舍, 是北美CFA注册貓舍, 我们在中国拥有将近800个会员, 所参加和组织关于猫咪的艺术活动不计其数, 被不少报纸及电视媒体报道过, 我们的宗旨就是分享和宠物在一起的快乐! 我们希望我们的同事跟我们的会员每天都生活在一个快乐的氛围当中!  ",
                "admin_id": "1",
                "update_admin_id": "4",
                "phone": "",
                "service_tag_ids": "40",
                "service_tags": "猫舍",
                "picture": "http://img.petshow.cc/pet_show/2015_11/92bf25a498863781fe1732eb5061d8f0.jpg",
                "latitude": "23.09116300000000000",
                "longitude": "113.23721300000000000",
                "province": "广东省",
                "city": "广州市",
                "district": "荔湾区",
                "street": "",
                "street_number": "",
                "formatted_address": "喜鹊路106号",
                "surround": "美陶雅居",
                "business_hour": "尚无营业时间",
                "level": "0",
                "source": "http://m.dianping.com/shop/14351220",
                "intro": "AnyMew PETS STORE是一家从事纯种猫进口,销售, 俱乐部于一体的宠物猫舍, 是北美CFA注册貓舍, 我们在中国拥有将近800个会员, 所参加和组织关于猫咪的艺术活动不计其数, 被不少报纸及电视媒体报道过, 我们的宗旨就是分享和宠物在一起的快乐! 我们希望我们的同事跟我们的会员每天都生活在一个快乐的氛围当中!  ",
                "is_delete": "0",
                "create_time": "2015-07-06 10:02:15",
                "update_time": "2015-07-29 11:04:59"
            },
            {
                "id": "5038",
                "name": "恺威猫舍",
                "seo_keywords": "恺威猫舍,广州市恺威猫舍,广州市宠物猫舍",
                "seo_description": "广州市最好的宠物猫舍是恺威猫舍！",
                "admin_id": "1",
                "update_admin_id": "4",
                "phone": "02011972899",
                "service_tag_ids": "40",
                "service_tags": "猫舍",
                "picture": "http://img.petshow.cc/pet_show/2015_08/218148b5fab754303312c24b4f160769.jpg",
                "latitude": "23.12295700000000000",
                "longitude": "113.21283300000000000",
                "province": "广东省",
                "city": "广州市",
                "district": "荔湾区",
                "street": "",
                "street_number": "",
                "formatted_address": "龙湾广场附近",
                "surround": "近建安医院",
                "business_hour": "8：30-23:00",
                "level": "0",
                "source": "http://m.dianping.com/shop/13751364",
                "intro": "",
                "is_delete": "0",
                "create_time": "2015-07-06 10:02:14",
                "update_time": "2015-08-31 17:04:17"
            },
            {
                "id": "5025",
                "name": "雅阁猫舍",
                "seo_keywords": "雅阁猫舍,广州市雅阁猫舍,广州市宠物猫舍",
                "seo_description": "广州市最好的宠物猫舍是雅阁猫舍！",
                "admin_id": "1",
                "update_admin_id": "4",
                "phone": "13527731990",
                "service_tag_ids": "40,22",
                "service_tags": "猫舍,猫粮",
                "picture": "http://img.petshow.cc/pet_show/2015_08/22cc1eeb6e8a799e80c9175d47ad5c73.jpg",
                "latitude": "23.13139000000000000",
                "longitude": "113.22476900000000000",
                "province": "广东省",
                "city": "广州市",
                "district": "荔湾区",
                "street": "",
                "street_number": "",
                "formatted_address": "坦尾地铁站D、G出口",
                "surround": "双桥学校",
                "business_hour": "9:00-11:00",
                "level": "0",
                "source": "http://m.dianping.com/shop/19129428",
                "intro": "",
                "is_delete": "0",
                "create_time": "2015-07-06 10:02:14",
                "update_time": "2015-09-02 15:58:42"
            },
            {
                "id": "4973",
                "name": "宠物猫",
                "seo_keywords": "宠物猫,广州市宠物猫,广州市宠物猫舍",
                "seo_description": "",
                "admin_id": "1",
                "update_admin_id": "4",
                "phone": "13539819911",
                "service_tag_ids": "40",
                "service_tags": "猫舍",
                "picture": "http://img.petshow.cc/pet_show/2015_08/fcd47a280257458f621f09513a9ae4d8.jpg",
                "latitude": "23.12306500000000000",
                "longitude": "113.21284700000000000",
                "province": "广东省",
                "city": "广州市",
                "district": "荔湾区",
                "street": "",
                "street_number": "",
                "formatted_address": "龙湾广场",
                "surround": "窖口地铁站",
                "business_hour": "8.00=23.00",
                "level": "0",
                "source": "http://m.dianping.com/shop/13861319",
                "intro": "",
                "is_delete": "0",
                "create_time": "2015-07-06 10:02:12",
                "update_time": "2015-09-02 17:12:33"
            },
            {
                "id": "4963",
                "name": "雅轩猫阁",
                "seo_keywords": "雅轩猫阁,广州市雅轩猫阁,广州市宠物猫舍",
                "seo_description": "广州市最好的宠物猫舍是雅轩猫阁！",
                "admin_id": "1",
                "update_admin_id": "4",
                "phone": "",
                "service_tag_ids": "40",
                "service_tags": "猫舍",
                "picture": "http://img.petshow.cc/pet_show/2015_08/47745c98d54ffcbe6cdb84a0e1647379.jpg",
                "latitude": "23.12109500000000000",
                "longitude": "113.21489000000000000",
                "province": "广东省",
                "city": "广州市",
                "district": "荔湾区",
                "street": "",
                "street_number": "",
                "formatted_address": "窖口客运站",
                "surround": "窖口客运站",
                "business_hour": "早上9：00-晚上11：00",
                "level": "0",
                "source": "http://m.dianping.com/shop/22641930",
                "intro": "",
                "is_delete": "0",
                "create_time": "2015-07-06 10:02:12",
                "update_time": "2015-09-02 17:14:41"
            },
            {
                "id": "4880",
                "name": "mini CAT专卖店",
                "seo_keywords": "mini CAT专卖店,广州市mini CAT专卖店,广州市宠物猫舍",
                "seo_description": "广州市最好的宠物猫舍是mini CAT专卖店！",
                "admin_id": "1",
                "update_admin_id": "4",
                "phone": "",
                "service_tag_ids": "40",
                "service_tags": "猫舍",
                "picture": "http://img.petshow.cc/pet_show/2015_08/6843b3af422ea48c7498e72ae7453d86.jpg",
                "latitude": "22.93511500000000000",
                "longitude": "113.37473900000000000",
                "province": "广东省",
                "city": "广州市",
                "district": "番禺区",
                "street": "",
                "street_number": "",
                "formatted_address": "桥南路47号",
                "surround": " 玛莉奥(桥南路店)",
                "business_hour": "尚无营业时间",
                "level": "0",
                "source": "http://m.dianping.com/shop/14348847",
                "intro": "",
                "is_delete": "0",
                "create_time": "2015-07-06 10:02:10",
                "update_time": "2015-09-04 14:21:52"
            },
            {
                "id": "4811",
                "name": "雅阁猫舍",
                "seo_keywords": "雅阁猫舍,广州市雅阁猫舍,广州市宠物猫舍",
                "seo_description": "广州市最好的宠物猫舍是雅阁猫舍！",
                "admin_id": "1",
                "update_admin_id": "4",
                "phone": "13527731990",
                "service_tag_ids": "40",
                "service_tags": "猫舍",
                "picture": "http://img.petshow.cc/pet_show/2015_08/e00ad4876b205cccd162abaceab982ec.jpg",
                "latitude": "23.12306500000000000",
                "longitude": "113.21284700000000000",
                "province": "广东省",
                "city": "广州市",
                "district": "荔湾区",
                "street": "",
                "street_number": "",
                "formatted_address": "窖口地铁B1出口",
                "surround": "龙湾广场",
                "business_hour": "9:00-23:00",
                "level": "0",
                "source": "http://m.dianping.com/shop/18770894",
                "intro": "",
                "is_delete": "0",
                "create_time": "2015-07-06 10:02:09",
                "update_time": "2015-08-15 17:44:01"
            },
            {
                "id": "4796",
                "name": "何小猫",
                "seo_keywords": "何小猫,广州市何小猫,广州市宠物猫舍",
                "seo_description": "广州市最好的宠物猫舍是何小猫！",
                "admin_id": "1",
                "update_admin_id": "4",
                "phone": "",
                "service_tag_ids": "40",
                "service_tags": "猫舍",
                "picture": "http://img.petshow.cc/pet_show/2015_08/5ae97ff755346055404678edc61d4ea4.jpg",
                "latitude": "23.00517400000000000",
                "longitude": "113.35298800000000000",
                "province": "广东省",
                "city": "广州市",
                "district": "番禺区",
                "street": "",
                "street_number": "",
                "formatted_address": "锦绣路138号华南干线迎宾路段锦绣香江山水园",
                "surround": "近汉溪地铁站",
                "business_hour": "尚无营业时间",
                "level": "0",
                "source": "http://m.dianping.com/shop/6131559",
                "intro": "",
                "is_delete": "0",
                "create_time": "2015-07-06 10:02:09",
                "update_time": "2015-08-14 16:48:29"
            },
            {
                "id": "4759",
                "name": "Coffey猫舍",
                "seo_keywords": "Coffey猫舍,广州市Coffey猫舍,广州市宠物猫舍",
                "seo_description": "广州市最好的宠物猫舍是Coffey猫舍！",
                "admin_id": "1",
                "update_admin_id": "4",
                "phone": "13538953636",
                "service_tag_ids": "40",
                "service_tags": "猫舍",
                "picture": "http://img.petshow.cc/pet_show/2015_08/7759562ef87bbf02bfd248db59e50e2e.jpg",
                "latitude": "23.15462700000000000",
                "longitude": "113.59011600000000000",
                "province": "广东省",
                "city": "广州市",
                "district": "增城区",
                "street": "",
                "street_number": "",
                "formatted_address": "凤凰城天麓山一街",
                "surround": "凤凰城",
                "business_hour": "尚无营业时间",
                "level": "0",
                "source": "http://m.dianping.com/shop/21719492",
                "intro": "",
                "is_delete": "0",
                "create_time": "2015-07-06 10:02:08",
                "update_time": "2015-08-12 16:27:49"
            },
            {
                "id": "4626",
                "name": "广州高丽猫舍",
                "seo_keywords": "广州高丽猫舍,广州市广州高丽猫舍,广州市宠物猫舍",
                "seo_description": "广州市最好的宠物猫舍是广州高丽猫舍！",
                "admin_id": "1",
                "update_admin_id": "4",
                "phone": "18319085835",
                "service_tag_ids": "40",
                "service_tags": "猫舍",
                "picture": "http://img.petshow.cc/pet_show/2015_08/1f7a2419b603ef5b7875ce33befbb6cc.jpg",
                "latitude": "23.13256100000000000",
                "longitude": "113.22660000000000000",
                "province": "广东省",
                "city": "广州市",
                "district": "荔湾区",
                "street": "",
                "street_number": "",
                "formatted_address": "裕福街33号",
                "surround": "双桥学校",
                "business_hour": "8：00-24：00",
                "level": "0",
                "source": "http://m.dianping.com/shop/18770827",
                "intro": "",
                "is_delete": "0",
                "create_time": "2015-07-06 10:02:06",
                "update_time": "2015-08-05 16:40:34"
            },
            {
                "id": "4624",
                "name": "振威猫舍",
                "seo_keywords": "振威猫舍,广州市振威猫舍,广州市宠物猫舍",
                "seo_description": "广州市最好的宠物猫舍是振威猫舍！",
                "admin_id": "1",
                "update_admin_id": "4",
                "phone": "",
                "service_tag_ids": "40",
                "service_tags": "猫舍",
                "picture": "http://img.petshow.cc/pet_show/2015_08/47c7170bd1030b08451b432c717ac829.jpg",
                "latitude": "23.11476400000000000",
                "longitude": "113.21320400000000000",
                "province": "广东省",
                "city": "广州市",
                "district": "荔湾区",
                "street": "",
                "street_number": "",
                "formatted_address": "芳兴路30-35号",
                "surround": "近珠江大桥",
                "business_hour": "早上9点到晚上9点",
                "level": "0",
                "source": "http://m.dianping.com/shop/17632082",
                "intro": "",
                "is_delete": "0",
                "create_time": "2015-07-06 10:02:06",
                "update_time": "2015-08-05 15:52:58"
            },
            {
                "id": "4618",
                "name": "爱猫馆宠物猫专卖店",
                "seo_keywords": "爱猫馆宠物猫专卖店,广州市爱猫馆宠物猫专卖店,广州市宠物猫舍",
                "seo_description": "广州市最好的宠物猫舍是爱猫馆宠物猫专卖店！",
                "admin_id": "1",
                "update_admin_id": "4",
                "phone": "02084442396",
                "service_tag_ids": "40",
                "service_tags": "猫舍",
                "picture": "http://img.petshow.cc/pet_show/2015_08/4caa01ce4c2d12789c8d91b279a56b9d.jpg",
                "latitude": "23.10418500000000000",
                "longitude": "113.27979000000000000",
                "province": "广东省",
                "city": "广州市",
                "district": "海珠区",
                "street": "",
                "street_number": "",
                "formatted_address": "江南大道中148号丽日商业广场一层B06",
                "surround": "丽日商业广场",
                "business_hour": "12:30--21:30",
                "level": "0",
                "source": "http://m.dianping.com/shop/19322727",
                "intro": "",
                "is_delete": "0",
                "create_time": "2015-07-06 10:02:06",
                "update_time": "2015-08-04 18:18:02"
            },
            {
                "id": "4374",
                "name": "大众猫舍",
                "seo_keywords": "大众猫舍,广州市大众猫舍,广州市宠物猫舍",
                "seo_description": "广州市最好的宠物猫舍是大众猫舍",
                "admin_id": "1",
                "update_admin_id": "4",
                "phone": "15918875605",
                "service_tag_ids": "40",
                "service_tags": "猫舍",
                "picture": "http://img.petshow.cc/pet_show/2015_07/ef59a9c72e6951ab17586bd438f5ecdf.jpg",
                "latitude": "23.12109500000000000",
                "longitude": "113.21489000000000000",
                "province": "广东省",
                "city": "广州市",
                "district": "荔湾区",
                "street": "",
                "street_number": "",
                "formatted_address": "窖口汽车站旁",
                "surround": "窖口汽车站",
                "business_hour": "8：00-10:00",
                "level": "30",
                "source": "http://m.dianping.com/shop/9382212",
                "intro": "",
                "is_delete": "0",
                "create_time": "2015-07-06 10:02:01",
                "update_time": "2015-07-29 11:04:59"
            },
            {
                "id": "4347",
                "name": "猫舍",
                "seo_keywords": "猫舍,广州市猫舍,广州市宠物猫舍",
                "seo_description": "广州市最好的宠物猫舍是猫舍",
                "admin_id": "1",
                "update_admin_id": "4",
                "phone": "18319585835",
                "service_tag_ids": "40",
                "service_tags": "猫舍",
                "picture": "http://img.petshow.cc/pet_show/2015_07/93ffc8cbc0855fa75dfdced0d764b4c9.jpg",
                "latitude": "23.12306500000000000",
                "longitude": "113.21284700000000000",
                "province": "广东省",
                "city": "广州市",
                "district": "荔湾区",
                "street": "",
                "street_number": "",
                "formatted_address": "芳兴路56号",
                "surround": "近龙湾广场",
                "business_hour": "8：00-23：00",
                "level": "35",
                "source": "http://m.dianping.com/shop/13721423",
                "intro": "",
                "is_delete": "0",
                "create_time": "2015-07-06 10:02:01",
                "update_time": "2015-07-29 11:04:59"
            },
            {
                "id": "4328",
                "name": "大猫堂",
                "seo_keywords": "大猫堂,广州市大猫堂,广州市宠物猫舍",
                "seo_description": "广州市最好的宠物猫舍是大猫堂",
                "admin_id": "1",
                "update_admin_id": "4",
                "phone": "02084419100",
                "service_tag_ids": "40",
                "service_tags": "猫舍",
                "picture": "http://img.petshow.cc/pet_show/2015_07/a7072fc445e126dbeda1c6767eef2122.jpg",
                "latitude": "23.10490000000000000",
                "longitude": "113.27665100000000000",
                "province": "广东省",
                "city": "广州市",
                "district": "海珠区",
                "street": "",
                "street_number": "",
                "formatted_address": "江南大道中紫来大街43-8号",
                "surround": "近丽日广场",
                "business_hour": "",
                "level": "35",
                "source": "http://m.dianping.com/shop/6241554",
                "intro": "",
                "is_delete": "0",
                "create_time": "2015-07-06 10:02:00",
                "update_time": "2015-07-29 11:04:59"
            },
            {
                "id": "4310",
                "name": "华尚猫舍",
                "seo_keywords": "华尚猫舍,广州市华尚猫舍,广州市宠物店铺",
                "seo_description": "广州市最好的宠物店铺是华尚猫舍",
                "admin_id": "1",
                "update_admin_id": "4",
                "phone": "15902099983",
                "service_tag_ids": "40",
                "service_tags": "猫舍",
                "picture": "http://img.petshow.cc/pet_show/2015_07/35c63bee8a522eb3050efad6addcced9.jpg",
                "latitude": "23.12109500000000000",
                "longitude": "113.21489000000000000",
                "province": "广东省",
                "city": "广州市",
                "district": "荔湾区",
                "street": "",
                "street_number": "",
                "formatted_address": "窖口汽车站附近",
                "surround": "窖口汽车站",
                "business_hour": "早上8点至晚上10点",
                "level": "35",
                "source": "http://m.dianping.com/shop/13713109",
                "intro": "",
                "is_delete": "0",
                "create_time": "2015-07-06 10:02:00",
                "update_time": "2015-07-29 11:04:59"
            },
            {
                "id": "4227",
                "name": "名猫苑",
                "seo_keywords": "名猫苑,广州市名猫苑,广州市宠物猫舍",
                "seo_description": "广州市最好的宠物猫舍是名猫苑",
                "admin_id": "1",
                "update_admin_id": "4",
                "phone": "18998802051",
                "service_tag_ids": "40",
                "service_tags": "猫舍",
                "picture": "http://img.petshow.cc/pet_show/2015_07/05b269e17e1d1064cc6d62dbdfe7e7db.jpg",
                "latitude": "23.09869200000000000",
                "longitude": "113.27355300000000000",
                "province": "广东省",
                "city": "广州市",
                "district": "海珠区",
                "street": "",
                "street_number": "",
                "formatted_address": "宝业路新一城广场",
                "surround": "江南西广百",
                "business_hour": "10：00-23：00",
                "level": "35",
                "source": "http://m.dianping.com/shop/18483517",
                "intro": "",
                "is_delete": "0",
                "create_time": "2015-07-06 10:01:59",
                "update_time": "2015-07-29 11:04:59"
            },
            {
                "id": "4219",
                "name": "宠物猫专卖店",
                "seo_keywords": "宠物猫专卖店,广州市宠物猫专卖店,广州市宠物店铺",
                "seo_description": "广州市最好的宠物店铺是宠物猫专卖店",
                "admin_id": "1",
                "update_admin_id": "4",
                "phone": "02083361165",
                "service_tag_ids": "40",
                "service_tags": "猫舍",
                "picture": "http://img.petshow.cc/pet_show/2015_07/c625a613f3429a73d7629444d2ace61f.jpg",
                "latitude": "23.12768400000000000",
                "longitude": "113.27397000000000000",
                "province": "广东省",
                "city": "广州市",
                "district": "越秀区",
                "street": "",
                "street_number": "",
                "formatted_address": "西湖路63号摩登百货5楼542专柜",
                "surround": "近北京路",
                "business_hour": "",
                "level": "30",
                "source": "http://m.dianping.com/shop/9441994",
                "intro": "",
                "is_delete": "0",
                "create_time": "2015-07-06 10:01:58",
                "update_time": "2015-07-29 11:04:59"
            },
            {
                "id": "3589",
                "name": "阿拉喵屋（长岛路店）",
                "seo_keywords": "阿拉喵屋,上海市阿拉喵屋,上海市宠物猫舍",
                "seo_description": "上海市最好的宠物猫舍是阿拉喵屋！",
                "admin_id": "1",
                "update_admin_id": "4",
                "phone": "13918516983",
                "service_tag_ids": "40",
                "service_tags": "猫舍",
                "picture": "http://img.petshow.cc/pet_show/2015_12/2c200b09d6ee90d6f864fed9f82d301a.jpg",
                "latitude": "31.26682400000000000",
                "longitude": "121.58901400000000000",
                "province": "上海",
                "city": "上海市",
                "district": "浦东新区",
                "street": "",
                "street_number": "",
                "formatted_address": "上海浦东新区长岛路588弄45号501",
                "surround": "金桥花苑长岛路",
                "business_hour": "尚无营业时间",
                "level": "0",
                "source": "http://m.dianping.com/shop/22136996",
                "intro": "",
                "is_delete": "0",
                "create_time": "2015-07-06 10:01:46",
                "update_time": "2015-07-29 11:04:59"
            },
            {
                "id": "3510",
                "name": "优培良猫CFA猫舍",
                "seo_keywords": "优培良猫CFA猫舍,上海市优培良猫CFA猫舍,上海市宠物猫舍",
                "seo_description": "上海市最好的宠物猫舍是优培良猫CFA猫舍！",
                "admin_id": "1",
                "update_admin_id": "4",
                "phone": "02166285866",
                "service_tag_ids": "40",
                "service_tags": "猫舍",
                "picture": "http://img.petshow.cc/pet_show/2015_11/655cce2e6a42f2232e54a266d512c44c.jpg",
                "latitude": "31.28669200000000000",
                "longitude": "121.45786600000000000",
                "province": "上海",
                "city": "上海市",
                "district": "闸北区",
                "street": "",
                "street_number": "",
                "formatted_address": "共和新路2488号",
                "surround": "近大宁公园",
                "business_hour": "10:00-19:00",
                "level": "0",
                "source": "http://m.dianping.com/shop/8026742",
                "intro": "",
                "is_delete": "0",
                "create_time": "2015-07-06 10:01:45",
                "update_time": "2015-07-29 11:04:59"
            },
            {
                "id": "3273",
                "name": "二仔猫咪",
                "seo_keywords": "二仔猫咪,上海二仔猫咪,上海猫舍",
                "seo_description": "上海二仔猫咪是一家猫舍",
                "admin_id": "1",
                "update_admin_id": "6",
                "phone": "",
                "service_tag_ids": "40",
                "service_tags": "猫舍",
                "picture": "http://img.petshow.cc/pet_show/2015_11/8b82642f9338f6c77354f91ce09d2bfb.jpg",
                "latitude": "31.23994844121663000",
                "longitude": "121.41520626716411000",
                "province": "上海",
                "city": "上海市",
                "district": "普陀区",
                "street": "",
                "street_number": "",
                "formatted_address": "曹杨路",
                "surround": "地铁11号线",
                "business_hour": "尚无营业时间",
                "level": "35",
                "source": "http://m.dianping.com/shop/9026984",
                "intro": "",
                "is_delete": "0",
                "create_time": "2015-07-06 10:01:41",
                "update_time": "2015-07-29 11:04:59"
            },
            {
                "id": "3250",
                "name": "萌猫小舍",
                "seo_keywords": "萌猫小舍,上海萌猫小舍,上海猫舍",
                "seo_description": "上海萌猫小舍是一家猫舍",
                "admin_id": "1",
                "update_admin_id": "6",
                "phone": "13801862325",
                "service_tag_ids": "40",
                "service_tags": "猫舍",
                "picture": "http://img.petshow.cc/pet_show/2015_11/5fbbf60c4ec077f53c3310a679499f73.jpg",
                "latitude": "31.35083983716037500",
                "longitude": "121.35668080642075000",
                "province": "上海",
                "city": "上海市",
                "district": "宝山区",
                "street": "",
                "street_number": "",
                "formatted_address": "菊太路999弄80号",
                "surround": "近顾村公园",
                "business_hour": "8:00-24:0",
                "level": "35",
                "source": "http://m.dianping.com/shop/10010593",
                "intro": "",
                "is_delete": "0",
                "create_time": "2015-07-06 10:01:41",
                "update_time": "2015-07-29 11:04:59"
            },
            {
                "id": "2937",
                "name": "千宠猫苑",
                "seo_keywords": "千宠猫苑,上海千宠猫苑,上海猫舍",
                "seo_description": "上海千宠猫苑是一家猫舍",
                "admin_id": "1",
                "update_admin_id": "6",
                "phone": "02162050133",
                "service_tag_ids": "40",
                "service_tags": "猫舍",
                "picture": "http://img.petshow.cc/pet_show/2015_08/a13adf211d95828d88ba1ff0fca6c7c7.jpg",
                "latitude": "31.30789000000000000",
                "longitude": "121.32210300000000000",
                "province": "上海",
                "city": "上海市",
                "district": "嘉定区",
                "street": "",
                "street_number": "",
                "formatted_address": "芳林路669弄布鲁斯郡",
                "surround": "近沿河路",
                "business_hour": "早9:00-晚18:00",
                "level": "35",
                "source": "http://m.dianping.com/shop/17644301",
                "intro": "",
                "is_delete": "0",
                "create_time": "2015-07-06 10:01:34",
                "update_time": "2015-08-26 16:27:22"
            },
            {
                "id": "2903",
                "name": "懒猫房子家庭猫舍",
                "seo_keywords": "懒猫房子家庭猫舍,上海懒猫房子家庭猫舍,上海宠物猫舍",
                "seo_description": "上海懒猫房子家庭猫舍是一家宠物猫舍",
                "admin_id": "1",
                "update_admin_id": "6",
                "phone": "18017390689",
                "service_tag_ids": "40",
                "service_tags": "猫舍",
                "picture": "http://img.petshow.cc/pet_show/2015_08/432a04dab2b2fdedf970bf448e3e1b17.jpg",
                "latitude": "31.15295000000000000",
                "longitude": "121.57164800000000000",
                "province": "上海",
                "city": "上海市",
                "district": "浦东新区",
                "street": "",
                "street_number": "",
                "formatted_address": "康士路2弄康桥花园",
                "surround": "近康桥路",
                "business_hour": "工作日 21:00~23:00周末    8:00~20:00",
                "level": "35",
                "source": "http://m.dianping.com/shop/21750446",
                "intro": "",
                "is_delete": "0",
                "create_time": "2015-07-06 10:01:34",
                "update_time": "2015-08-25 14:48:50"
            },
            {
                "id": "2637",
                "name": "世界名猫乐园",
                "seo_keywords": "世界名猫乐园,上海世界名猫乐园,上海猫舍",
                "seo_description": "上海世界名猫乐园是一家宠物猫舍",
                "admin_id": "1",
                "update_admin_id": "6",
                "phone": "13301846400",
                "service_tag_ids": "40",
                "service_tags": "猫舍",
                "picture": "http://img.petshow.cc/pet_show/2015_08/e3e2a0b3458bc1099223cae58cc01abc.jpg",
                "latitude": "31.19577300000000000",
                "longitude": "121.37409900000000000",
                "province": "上海",
                "city": "上海市",
                "district": "长宁区",
                "street": "",
                "street_number": "",
                "formatted_address": "虹桥路2374号74-76号",
                "surround": "近动物园,好又香菜馆",
                "business_hour": "10:00--18:00",
                "level": "35",
                "source": "http://m.dianping.com/shop/8925163",
                "intro": "",
                "is_delete": "0",
                "create_time": "2015-07-06 10:01:29",
                "update_time": "2015-08-10 15:18:47"
            },
            {
                "id": "2621",
                "name": "cc宠物店",
                "seo_keywords": "cc宠物店,上海cc宠物店,上海宠物店铺",
                "seo_description": "上海cc宠物店是一家宠物店铺",
                "admin_id": "1",
                "update_admin_id": "6",
                "phone": "02162195161",
                "service_tag_ids": "40",
                "service_tags": "猫舍",
                "picture": "http://img.petshow.cc/pet_show/2015_08/b376abce21e74b71272b69fe312f4421.jpg",
                "latitude": "31.22998500000000000",
                "longitude": "121.44902500000000000",
                "province": "上海",
                "city": "上海市",
                "district": "静安区 ",
                "street": "",
                "street_number": "",
                "formatted_address": "愚园路300号,申乐大厦22楼2201室",
                "surround": "好好先生",
                "business_hour": "11:30—18:00",
                "level": "35",
                "source": "http://m.dianping.com/shop/22928891",
                "intro": "",
                "is_delete": "0",
                "create_time": "2015-07-06 10:01:29",
                "update_time": "2015-08-08 17:05:02"
            },
            {
                "id": "2448",
                "name": "彩虹猫屋",
                "seo_keywords": "彩虹猫屋,上海彩虹猫屋,上海猫舍",
                "seo_description": "上海彩虹猫屋是一家猫舍",
                "admin_id": "1",
                "update_admin_id": "6",
                "phone": "13916248700",
                "service_tag_ids": "40,183,191",
                "service_tags": "猫舍,配种,绝育",
                "picture": "http://img.petshow.cc/pet_show/2015_07/bf2ddcfd0af4fdfeebc583ebc7aac24f.jpg",
                "latitude": "31.23992015209329800",
                "longitude": "121.41457898762690000",
                "province": "上海",
                "city": "上海市",
                "district": "普陀区",
                "street": "",
                "street_number": "",
                "formatted_address": "曹杨路520号西宫花鸟市场A64-65室",
                "surround": "西宫花鸟市场",
                "business_hour": "每天 8: 00 -- 24: 00",
                "level": "35",
                "source": "http://m.dianping.com/shop/8962452",
                "intro": "",
                "is_delete": "0",
                "create_time": "2015-07-06 10:01:26",
                "update_time": "2015-07-29 17:52:12"
            },
            {
                "id": "2412",
                "name": "喵屋",
                "seo_keywords": "喵屋,上海喵屋,上海猫舍",
                "seo_description": "上海喵屋是一家猫舍",
                "admin_id": "1",
                "update_admin_id": "6",
                "phone": "",
                "service_tag_ids": "40",
                "service_tags": "猫舍",
                "picture": "http://img.petshow.cc/pet_show/2015_07/70a7afbc624fd71bbda1c9b689f0af4f.jpg",
                "latitude": "31.24567000000000000",
                "longitude": "121.42820500000000000",
                "province": "上海",
                "city": "上海市",
                "district": "普陀区",
                "street": "",
                "street_number": "",
                "formatted_address": "武宁路225号门上海沪西工人文化宫花鸟市场C19",
                "surround": "银宫商厦",
                "business_hour": "尚无营业时间",
                "level": "35",
                "source": "http://m.dianping.com/shop/6854839",
                "intro": "",
                "is_delete": "0",
                "create_time": "2015-07-06 10:01:26",
                "update_time": "2015-07-29 11:04:59"
            },
            {
                "id": "2352",
                "name": "Baby Cat 喵星人^_^名猫馆",
                "seo_keywords": "Baby Cat 喵星人^_^名猫馆,上海Baby Cat 喵星人^_^名猫馆,上海宠物店铺",
                "seo_description": "上海Baby Cat 喵星人^_^名猫馆是一家宠物店铺",
                "admin_id": "1",
                "update_admin_id": "6",
                "phone": "18116191313",
                "service_tag_ids": "40",
                "service_tags": "猫舍",
                "picture": "http://img.petshow.cc/pet_show/2015_07/35d110428aa0c3a6644e914543dd6cdf.jpg",
                "latitude": "31.24101436027158000",
                "longitude": "121.47847739304143000",
                "province": "上海",
                "city": "上海市",
                "district": "黄浦区",
                "street": "",
                "street_number": "",
                "formatted_address": "宁波路",
                "surround": "南京东路步行街",
                "business_hour": "每天 00:00 - 24:00",
                "level": "35",
                "source": "http://m.dianping.com/shop/15102705",
                "intro": "",
                "is_delete": "0",
                "create_time": "2015-07-06 10:01:24",
                "update_time": "2015-07-29 11:04:59"
            },
            {
                "id": "2285",
                "name": "爱卡家庭猫舍",
                "seo_keywords": "爱卡家庭猫舍,上海爱卡家庭猫舍,上海宠物猫舍",
                "seo_description": "上海爱卡家庭猫舍是一家宠物猫舍",
                "admin_id": "1",
                "update_admin_id": "6",
                "phone": "18930436476",
                "service_tag_ids": "40",
                "service_tags": "猫舍",
                "picture": "http://img.petshow.cc/pet_show/2015_07/d83ac2932a52f22d4e4ca1a970250042.jpg",
                "latitude": "31.14846719284429700",
                "longitude": "121.56186253097009000",
                "province": "上海",
                "city": "上海市",
                "district": "浦东新区 ",
                "street": "",
                "street_number": "",
                "formatted_address": "康士路2弄",
                "surround": "近康桥路",
                "business_hour": "9:30~22:00",
                "level": "35",
                "source": "http://m.dianping.com/shop/8973619",
                "intro": "",
                "is_delete": "0",
                "create_time": "2015-07-06 10:01:23",
                "update_time": "2015-07-29 11:04:59"
            },
            {
                "id": "2275",
                "name": "喵屋",
                "seo_keywords": "喵屋,上海喵屋,上海猫舍",
                "seo_description": "上海喵屋是一家猫舍",
                "admin_id": "1",
                "update_admin_id": "6",
                "phone": "13501955572",
                "service_tag_ids": "40",
                "service_tags": "猫舍",
                "picture": "http://img.petshow.cc/pet_show/2015_07/407e7ee975dd4f0d263f46c0162c82ee.jpg",
                "latitude": "31.27116529846571800",
                "longitude": "121.47000457664207000",
                "province": "上海",
                "city": "上海市",
                "district": "虹口区",
                "street": "",
                "street_number": "",
                "formatted_address": "中山北一路23号吉凯花鸟市场DE2龙之梦",
                "surround": "近同心路",
                "business_hour": "早上10点到下午6点半其他时间可以电话预约QQ：2634693531",
                "level": "35",
                "source": "http://m.dianping.com/shop/15093572",
                "intro": "",
                "is_delete": "0",
                "create_time": "2015-07-06 10:01:23",
                "update_time": "2015-07-29 11:04:59"
            },
            {
                "id": "2257",
                "name": "CFA猫狗宠物中心",
                "seo_keywords": "CFA猫狗宠物中心,上海CFA猫狗宠物中心,上海宠物猫舍犬舍",
                "seo_description": "上海CFA猫狗宠物中心是一家猫舍犬舍机构",
                "admin_id": "1",
                "update_admin_id": "6",
                "phone": "02162600858",
                "service_tag_ids": "32,40",
                "service_tags": "犬舍,猫舍",
                "picture": "http://img.petshow.cc/pet_show/2015_07/8418c064194057857a0c01ab7ffdb4ac.jpg",
                "latitude": "31.25490900000000000",
                "longitude": "121.41074900000000000",
                "province": "上海",
                "city": "上海市",
                "district": "普陀区 ",
                "street": "",
                "street_number": "",
                "formatted_address": "北石路77号",
                "surround": "近铜川路,金鼎花苑",
                "business_hour": "24小时",
                "level": "40",
                "source": "http://m.dianping.com/shop/9946775",
                "intro": "",
                "is_delete": "0",
                "create_time": "2015-07-06 10:01:23",
                "update_time": "2015-07-29 11:04:59"
            },
            {
                "id": "2255",
                "name": "JJSHONEY猫舍（上海CFA英短猫舍）",
                "seo_keywords": "JJSHONEY猫舍（上海CFA英短猫舍）,上海JJSHONEY猫舍（上海CFA英短猫舍）,上海宠物店铺",
                "seo_description": "上海JJSHONEY猫舍（上海CFA英短猫舍）是一家宠物店铺",
                "admin_id": "1",
                "update_admin_id": "6",
                "phone": "18616226300",
                "service_tag_ids": "40",
                "service_tags": "猫舍",
                "picture": "http://img.petshow.cc/pet_show/2015_07/d7908de960b6982e275259eb99044487.jpg",
                "latitude": "31.12820788777817800",
                "longitude": "121.56553150984713000",
                "province": "上海",
                "city": "上海市",
                "district": "浦东新区",
                "street": "",
                "street_number": "",
                "formatted_address": "康桥秀浦路",
                "surround": "沪南公路",
                "business_hour": "10:00-18:00",
                "level": "35",
                "source": "http://m.dianping.com/shop/19352615",
                "intro": "",
                "is_delete": "0",
                "create_time": "2015-07-06 10:01:23",
                "update_time": "2015-07-29 11:04:59"
            },
            {
                "id": "2215",
                "name": "PureEyes Cattery 纯爱猫舍",
                "seo_keywords": "PureEyes Cattery 纯爱猫舍,上海PureEyes Cattery 纯爱猫舍,上海宠物猫舍店铺",
                "seo_description": "上海PureEyes Cattery 纯爱猫舍是一家宠物猫舍店铺",
                "admin_id": "1",
                "update_admin_id": "6",
                "phone": "18816622219",
                "service_tag_ids": "40",
                "service_tags": "猫舍",
                "picture": "http://img.petshow.cc/pet_show/2015_07/cb8c19c25138fb9c1be1de5d91a287a2.jpg",
                "latitude": "31.12050300000000000",
                "longitude": "121.57645800000000000",
                "province": "上海",
                "city": "上海市",
                "district": "浦东新区",
                "street": "",
                "street_number": "",
                "formatted_address": "年家浜路518号万达广场D座(海宝阁)6楼",
                "surround": "沪南公路、中国银行楼上",
                "business_hour": "10:00~22:00",
                "level": "35",
                "source": "http://m.dianping.com/shop/21246004",
                "intro": "",
                "is_delete": "0",
                "create_time": "2015-07-06 10:01:22",
                "update_time": "2015-07-29 11:04:59"
            },
            {
                "id": "2106",
                "name": "酷乐猫舍",
                "seo_keywords": "酷乐猫舍,上海酷乐猫舍,上海宠物猫舍店铺",
                "seo_description": "上海酷乐猫舍是一家猫舍店铺",
                "admin_id": "1",
                "update_admin_id": "6",
                "phone": "13818513130",
                "service_tag_ids": "40",
                "service_tags": "猫舍",
                "picture": "http://img.petshow.cc/pet_show/2015_07/2a81dd390014a455cd515ccde1b5ae76.jpg",
                "latitude": "31.24425000000000000",
                "longitude": "121.42569400000000000",
                "province": "上海",
                "city": "上海市",
                "district": "普陀区",
                "street": "",
                "street_number": "",
                "formatted_address": "曹杨路520号西宫花鸟市场C19室",
                "surround": "近中山北路",
                "business_hour": "早上10点，晚上6点半",
                "level": "35",
                "source": "http://m.dianping.com/shop/4773572",
                "intro": "",
                "is_delete": "0",
                "create_time": "2015-07-06 10:01:20",
                "update_time": "2015-07-29 11:04:59"
            }
        ],
        "page_data": {
            "page": 1,
            "page_total": 2,
            "data_total": 65,
            "limit": "LIMIT 0, 50",
            "page_html": ""
        }
    }
}