{
    "code": 100,
    "msg": "成功",
    "data": {
        "list": [
            {
                "id": "13779",
                "name": "飓风宠物会所",
                "seo_keywords": "飓风宠物会所,南宁市飓风宠物会所,南宁市飓风宠物会所犬舍",
                "seo_description": "南宁市飓风宠物会所犬舍主营萨摩、阿拉斯加、金毛犬售卖和犬粮宠物用品售卖",
                "admin_id": "1",
                "update_admin_id": "8",
                "phone": "07713864644",
                "service_tag_ids": "32,16,24",
                "service_tags": "犬舍,宠物用品,狗粮",
                "picture": "http://img.petshow.cc/pet_show/2016_03/32220864a84069565a2c92338c602fd8.jpg",
                "latitude": "22.85970800000000000",
                "longitude": "108.36681800000000000",
                "province": "广西省",
                "city": "南宁市",
                "district": "兴宁区",
                "street": "",
                "street_number": "",
                "formatted_address": "南梧路302号",
                "surround": "兴东兴建路口公交车站",
                "business_hour": "尚无营业时间",
                "level": "30",
                "source": "http://m.dianping.com/shop/14356109",
                "intro": "",
                "is_delete": "0",
                "create_time": "2015-12-08 16:38:37",
                "update_time": "0000-00-00 00:00:00"
            },
            {
                "id": "7690",
                "name": "大狄犬舍",
                "seo_keywords": "大狄犬舍,沈阳大狄犬舍,沈阳犬舍",
                "seo_description": "沈阳犬舍大狄犬舍是一家专为宠物狗服务的犬舍",
                "admin_id": "1",
                "update_admin_id": "5",
                "phone": "02486100160",
                "service_tag_ids": "32",
                "service_tags": "犬舍",
                "picture": "http://img.petshow.cc/pet_show/2015_08/da27f3ff2185eb4dba996b20d487aba0.jpg",
                "latitude": "41.86471500000000000",
                "longitude": "123.40173300000000000",
                "province": "辽宁省",
                "city": "沈阳市",
                "district": "皇姑区",
                "street": "",
                "street_number": "",
                "formatted_address": "白山路59号12门（近北二环,荷兰村）",
                "surround": "加州花园烧烤大排档,加州花园",
                "business_hour": "每天 00:00 - 24:00",
                "level": "30",
                "source": "http://m.dianping.com/shop/14172889",
                "intro": "",
                "is_delete": "0",
                "create_time": "2015-07-09 17:01:03",
                "update_time": "2015-08-04 17:02:25"
            },
            {
                "id": "7558",
                "name": "思叡拉布拉多犬舍",
                "seo_keywords": "思叡拉布拉多犬舍,沈阳思叡拉布拉多犬舍,沈阳犬舍",
                "seo_description": "沈阳犬舍思叡拉布拉多犬舍是一家专业的宠物犬饲养基地",
                "admin_id": "1",
                "update_admin_id": "5",
                "phone": "15524289999",
                "service_tag_ids": "32",
                "service_tags": "犬舍",
                "picture": "http://img.petshow.cc/pet_show/2015_08/3b01046e1935eb547d95292988b32578.png",
                "latitude": "41.91601855188699000",
                "longitude": "123.42036240032736000",
                "province": "辽宁省",
                "city": "沈阳市",
                "district": "沈北新区",
                "street": "",
                "street_number": "",
                "formatted_address": "高花",
                "surround": "夏家村",
                "business_hour": "每天 7: 00 -- 20: 00",
                "level": "35",
                "source": "http://m.dianping.com/shop/17662141",
                "intro": "",
                "is_delete": "0",
                "create_time": "2015-07-09 17:00:07",
                "update_time": "2015-08-11 17:26:24"
            },
            {
                "id": "7352",
                "name": "雅泰獒园",
                "seo_keywords": "雅泰獒园,南京雅泰獒园,南京犬舍",
                "seo_description": "南京犬舍雅泰獒园是一家专为藏獒服务的犬舍",
                "admin_id": "1",
                "update_admin_id": "5",
                "phone": "15996330999",
                "service_tag_ids": "32",
                "service_tags": "犬舍",
                "picture": "http://img.petshow.cc/pet_show/2015_08/432af0841cbf3003e07eecc21cda946f.png",
                "latitude": "32.36566600000000000",
                "longitude": "118.81602200000000000",
                "province": "江苏省",
                "city": "南京市",
                "district": "六合区",
                "street": "",
                "street_number": "",
                "formatted_address": "勤丰路(近城西胆石病医院)",
                "surround": "六合区特殊教育学校,六合区马鞍镇中心幼儿园",
                "business_hour": "每天 8: 00 -- 24: 00",
                "level": "30",
                "source": "http://m.dianping.com/shop/13665676",
                "intro": "",
                "is_delete": "0",
                "create_time": "2015-07-06 10:03:05",
                "update_time": "2015-08-22 16:32:01"
            },
            {
                "id": "7327",
                "name": "旺财犬舍",
                "seo_keywords": "旺财犬舍,南京旺财犬舍,南京犬舍",
                "seo_description": "南京犬舍旺财犬舍是一家专为宠物犬服务的犬舍",
                "admin_id": "1",
                "update_admin_id": "5",
                "phone": "02584186230",
                "service_tag_ids": "32",
                "service_tags": "犬舍",
                "picture": "http://img.petshow.cc/pet_show/2015_08/7c223fc23f446d5845e4803beb8054cf.jpg",
                "latitude": "31.87088100000000000",
                "longitude": "118.99440200000000000",
                "province": "江苏省",
                "city": "南京市",
                "district": "江宁区",
                "street": "",
                "street_number": "",
                "formatted_address": "湖熟镇西山涧20号",
                "surround": "南京市江宁区陵风清真食品有限公司,凯力液化气公司",
                "business_hour": "24小时营业",
                "level": "30",
                "source": "http://m.dianping.com/shop/4683327",
                "intro": "",
                "is_delete": "0",
                "create_time": "2015-07-06 10:03:05",
                "update_time": "2015-08-24 17:06:50"
            },
            {
                "id": "7169",
                "name": "超人犬舍",
                "seo_keywords": "超人犬舍,南京超人犬舍,南京犬舍",
                "seo_description": "南京犬舍超人犬舍是一家专为宠物狗服务的店铺",
                "admin_id": "1",
                "update_admin_id": "5",
                "phone": "13770923368 ",
                "service_tag_ids": "32",
                "service_tags": "犬舍",
                "picture": "http://img.petshow.cc/pet_show/2015_09/2dfe3762c68bd4aaea2db29447592f6c.png",
                "latitude": "32.00534800000000000",
                "longitude": "118.80817800000000000",
                "province": "江苏省",
                "city": "南京市",
                "district": "秦淮区",
                "street": "",
                "street_number": "",
                "formatted_address": "永乐北路26号",
                "surround": "诚信门窗加工,益丰大药房",
                "business_hour": "尚无营业时间",
                "level": "30",
                "source": "http://m.dianping.com/shop/11125913",
                "intro": "",
                "is_delete": "0",
                "create_time": "2015-07-06 10:03:01",
                "update_time": "2015-09-01 17:28:47"
            },
            {
                "id": "7035",
                "name": "超人犬舍",
                "seo_keywords": "超人犬舍,南京超人犬舍,南京犬舍",
                "seo_description": "南京犬舍超人犬舍是一家专为宠物犬服务的店铺",
                "admin_id": "1",
                "update_admin_id": "5",
                "phone": "025-83313494 ",
                "service_tag_ids": "32,16,21,86,183,195",
                "service_tags": "犬舍,宠物用品,洗澡,造型,配种,宠物售卖",
                "picture": "http://img.petshow.cc/pet_show/2015_10/962474dab5adeaa7f838dce136a6f4ed.png",
                "latitude": "32.04107400000000000",
                "longitude": "118.80330800000000000",
                "province": "江苏省",
                "city": "南京市",
                "district": "秦淮区",
                "street": "",
                "street_number": "",
                "formatted_address": "秦淮区长白街411-4（小杨村小区）",
                "surround": "伊蕊棋牌室绅高增高鞋南京长白街店",
                "business_hour": "9:00-21:00",
                "level": "35",
                "source": "http://m.dianping.com/shop/19825880",
                "intro": "",
                "is_delete": "0",
                "create_time": "2015-07-06 10:02:59",
                "update_time": "2015-07-29 11:04:59"
            },
            {
                "id": "7001",
                "name": "宠乐家宠物无笼寄养",
                "seo_keywords": "宠乐家宠物无笼寄养,南京宠乐家宠物无笼寄养,南京宠物寄养",
                "seo_description": "南京宠物寄养宠乐家宠物无笼寄养是一家专门做宠物寄养的场所",
                "admin_id": "1",
                "update_admin_id": "5",
                "phone": "13913939525",
                "service_tag_ids": "32,6",
                "service_tags": "犬舍,寄养",
                "picture": "http://img.petshow.cc/pet_show/2015_10/3413e7b8234bb4b1ea4a360e6e7a226e.jpg",
                "latitude": "31.86768039296486000",
                "longitude": "118.61558664336194000",
                "province": "江苏省",
                "city": "南京市",
                "district": "江宁区",
                "street": "",
                "street_number": "",
                "formatted_address": "雷古路17号",
                "surround": "南京市江宁区江宁街道市容管委会,阁老山墓园",
                "business_hour": "01:00-24:00",
                "level": "35",
                "source": "http://m.dianping.com/shop/23610418",
                "intro": "",
                "is_delete": "0",
                "create_time": "2015-07-06 10:02:58",
                "update_time": "2015-07-29 11:04:59"
            },
            {
                "id": "6824",
                "name": "精品犬屋",
                "seo_keywords": "精品犬屋,成都市精品犬屋,成都市精品犬屋犬舍",
                "seo_description": "成都市锦江区东大街398号精品犬屋犬舍",
                "admin_id": "1",
                "update_admin_id": "8",
                "phone": "13541215575",
                "service_tag_ids": "32,195",
                "service_tags": "犬舍,宠物售卖",
                "picture": "http://img.petshow.cc/pet_show/2015_09/ca6c9c64c0198b3c25cc07cf5fb645cb.jpg",
                "latitude": "30.98965200000000000",
                "longitude": "103.95747400000000000",
                "province": "四川省",
                "city": "成都市",
                "district": "锦江区",
                "street": "东大街",
                "street_number": "东大街398号",
                "formatted_address": "东大街398号",
                "surround": "东大街,天天乐幼儿园",
                "business_hour": "尚无营业时间",
                "level": "30",
                "source": "http://m.dianping.com/shop/11408872",
                "intro": "成都市锦江区东大街398号精品犬屋",
                "is_delete": "0",
                "create_time": "2015-07-06 10:02:53",
                "update_time": "2015-08-30 15:47:14"
            },
            {
                "id": "6712",
                "name": "黄金犬舍多弟宠物服务中心",
                "seo_keywords": "黄金犬舍多弟宠物服务中心,成都市黄金犬舍多弟宠物服务中心,成都市黄金犬舍多弟宠物服务中心犬舍",
                "seo_description": "成都市成华区东安北路20号附7号黄金犬舍多弟宠物服务中心犬舍",
                "admin_id": "1",
                "update_admin_id": "8",
                "phone": "02886624669",
                "service_tag_ids": "32,195,16",
                "service_tags": "犬舍,宠物售卖,宠物用品",
                "picture": "http://img.petshow.cc/pet_show/2015_10/d62dad63703fa0796dbba5a9582e589e.jpg",
                "latitude": "30.66464500000000000",
                "longitude": "104.09799600000000000",
                "province": "四川省",
                "city": "成都市",
                "district": "成华区",
                "street": "东安北路",
                "street_number": "东安北路20号附7号",
                "formatted_address": "东安北路20号附7号",
                "surround": "成大街",
                "business_hour": "尚无营业时间",
                "level": "30",
                "source": "http://m.dianping.com/shop/4321630",
                "intro": "成都市成华区东安北路20号附7号黄金犬舍多弟宠物服务中心",
                "is_delete": "0",
                "create_time": "2015-07-06 10:02:51",
                "update_time": "2015-08-19 18:09:42"
            },
            {
                "id": "6661",
                "name": "彭氏宠物",
                "seo_keywords": "彭氏宠物,成都市彭氏宠物,成都市彭氏宠物店铺",
                "seo_description": "成都市锦江区东大街347号彭氏宠物",
                "admin_id": "1",
                "update_admin_id": "8",
                "phone": "13688072546",
                "service_tag_ids": "32,16",
                "service_tags": "犬舍,宠物用品",
                "picture": "http://img.petshow.cc/pet_show/2015_10/f4586334a49c23e3c478583cc5dee59c.jpg",
                "latitude": "30.99000800000000000",
                "longitude": "103.95697000000000000",
                "province": "四川省",
                "city": "成都市",
                "district": "锦江区",
                "street": "东大街",
                "street_number": "东大街347号",
                "formatted_address": "东大街347号",
                "surround": "润眼电器",
                "business_hour": "尚无营业时间",
                "level": "30",
                "source": "http://m.dianping.com/shop/11409392",
                "intro": "成都市锦江区东大街347号彭氏宠物",
                "is_delete": "0",
                "create_time": "2015-07-06 10:02:50",
                "update_time": "2015-08-17 17:48:03"
            },
            {
                "id": "6623",
                "name": "德豪獒园",
                "seo_keywords": "德豪獒园,成都市德豪獒园,成都市德豪獒园犬舍",
                "seo_description": "成都市郫县金鑫大道德豪獒园",
                "admin_id": "1",
                "update_admin_id": "8",
                "phone": "",
                "service_tag_ids": "32,16,6,24",
                "service_tags": "犬舍,宠物用品,寄养,狗粮",
                "picture": "http://img.petshow.cc/pet_show/2015_10/bb951357ed19233521b88be5f159669b.jpg",
                "latitude": "30.74845700000000000",
                "longitude": "104.01767900000000000",
                "province": "四川省",
                "city": "成都市",
                "district": "",
                "street": "金鑫大道",
                "street_number": "",
                "formatted_address": "金鑫大道",
                "surround": "",
                "business_hour": "尚无营业时间",
                "level": "30",
                "source": "http://m.dianping.com/shop/11486918",
                "intro": "成都市郫县金鑫大道德豪獒园",
                "is_delete": "0",
                "create_time": "2015-07-06 10:02:49",
                "update_time": "2015-08-13 17:48:28"
            },
            {
                "id": "6602",
                "name": "爱宝园犬业有限公司",
                "seo_keywords": "爱宝园犬业有限公司,成都市爱宝园犬业有限公司,成都市爱宝园犬业有限公司犬舍",
                "seo_description": "成都市金堂县云秀乡栖木河村16组爱宝园犬业有限公司犬舍",
                "admin_id": "1",
                "update_admin_id": "8",
                "phone": "15828340115",
                "service_tag_ids": "32,24,178",
                "service_tags": "犬舍,狗粮,零食",
                "picture": "http://img.petshow.cc/pet_show/2015_08/e6d72b7ab82f7e6deb1c3b867eb37cd8.jpg",
                "latitude": "30.57472341254930000",
                "longitude": "104.06403602048286000",
                "province": "四川省",
                "city": "成都市",
                "district": "金堂县",
                "street": "栖木河村",
                "street_number": "栖木河村16组",
                "formatted_address": "云秀乡栖木河村16组",
                "surround": "申达养殖",
                "business_hour": "尚无营业时间",
                "level": "30",
                "source": "http://m.dianping.com/shop/21028848",
                "intro": "成都市云金堂县秀乡栖木河村16组爱宝园犬业有限公司",
                "is_delete": "0",
                "create_time": "2015-07-06 10:02:49",
                "update_time": "2015-08-12 17:34:14"
            },
            {
                "id": "6589",
                "name": "顶尖犬舍",
                "seo_keywords": "顶尖犬舍,成都市顶尖犬舍,成都市顶尖犬舍犬舍",
                "seo_description": "",
                "admin_id": "1",
                "update_admin_id": "8",
                "phone": "",
                "service_tag_ids": "32,16,24,6",
                "service_tags": "犬舍,宠物用品,狗粮,寄养",
                "picture": "http://img.petshow.cc/pet_show/2015_10/db1b6685377cecee168530e02aaf5d6c.jpg",
                "latitude": "30.88747500000000000",
                "longitude": "104.26935700000000000",
                "province": "四川省",
                "city": "成都市",
                "district": "",
                "street": "怡湖东路",
                "street_number": "怡湖东路191号",
                "formatted_address": "怡湖东路191号",
                "surround": "",
                "business_hour": "尚无营业时间",
                "level": "30",
                "source": "http://m.dianping.com/shop/11420500",
                "intro": "成都市怡湖东路191号顶尖犬舍",
                "is_delete": "0",
                "create_time": "2015-07-06 10:02:48",
                "update_time": "2015-08-11 18:08:18"
            },
            {
                "id": "6558",
                "name": "时尚犬舍",
                "seo_keywords": "时尚犬舍,成都市时尚犬舍,成都市时尚犬舍犬舍",
                "seo_description": "成都市锦江区新开街18号附20号时尚犬舍犬舍",
                "admin_id": "1",
                "update_admin_id": "8",
                "phone": "02881294812",
                "service_tag_ids": "32,16,24,6",
                "service_tags": "犬舍,宠物用品,狗粮,寄养",
                "picture": "http://img.petshow.cc/pet_show/2015_10/3a0000593e0f128db808128ebc115b2f.jpg",
                "latitude": "30.65531800000000000",
                "longitude": "104.07590800000000000",
                "province": "四川省",
                "city": "成都市",
                "district": "锦江区",
                "street": "新开街",
                "street_number": "新开街18号附20号",
                "formatted_address": "新开街18号附20号",
                "surround": "新开街,叠翠城",
                "business_hour": "尚无营业时间",
                "level": "30",
                "source": "http://m.dianping.com/shop/11503495",
                "intro": "成都市锦江区新开街18号附20号时尚犬舍",
                "is_delete": "0",
                "create_time": "2015-07-06 10:02:48",
                "update_time": "2015-08-10 17:35:04"
            },
            {
                "id": "6519",
                "name": "匡氏犬业",
                "seo_keywords": "匡氏犬业,成都市匡氏犬业,成都市匡氏犬业犬舍",
                "seo_description": "成都市新都区公园路119号匡氏犬业犬舍",
                "admin_id": "1",
                "update_admin_id": "8",
                "phone": "",
                "service_tag_ids": "32,24,178",
                "service_tags": "犬舍,狗粮,零食",
                "picture": "http://img.petshow.cc/pet_show/2015_10/d60fef2f8637eaafbd9d2819d5ee5722.jpg",
                "latitude": "30.82564400000000000",
                "longitude": "104.16127200000000000",
                "province": "四川省",
                "city": "成都市",
                "district": "新都区",
                "street": "公园路",
                "street_number": "公园路119号",
                "formatted_address": "公园路119号",
                "surround": "公园路,新桂华庭",
                "business_hour": "尚无营业时间",
                "level": "30",
                "source": "http://m.dianping.com/shop/11425421",
                "intro": "成都市新都区公园路119号匡氏犬业",
                "is_delete": "0",
                "create_time": "2015-07-06 10:02:47",
                "update_time": "2015-07-31 17:38:42"
            },
            {
                "id": "6349",
                "name": "爱淘宠吧",
                "seo_keywords": "爱淘宠吧,成都市爱淘宠吧,成都市爱淘宠吧犬舍",
                "seo_description": "成都市龙泉驿区十陵镇平安家园38栋2单元704室爱淘宠吧犬舍",
                "admin_id": "1",
                "update_admin_id": "8",
                "phone": "02862314518",
                "service_tag_ids": "32,24,178",
                "service_tags": "犬舍,狗粮,零食",
                "picture": "http://img.petshow.cc/pet_show/2015_07/d048a6280738b72225ddcdaffdf6f284.jpg",
                "latitude": "30.65572584778237000",
                "longitude": "104.17795981445934000",
                "province": "四川省",
                "city": "成都市",
                "district": "龙泉驿区",
                "street": "",
                "street_number": "",
                "formatted_address": "龙泉驿区十陵镇平安家园38栋2单元704室",
                "surround": "十陵公交站",
                "business_hour": "尚无营业时间",
                "level": "35",
                "source": "http://m.dianping.com/shop/21079370",
                "intro": "成都市龙泉驿区十陵镇平安家园38栋2单元704室爱淘宠吧",
                "is_delete": "0",
                "create_time": "2015-07-06 10:02:44",
                "update_time": "2015-07-29 11:04:59"
            },
            {
                "id": "6346",
                "name": "东辉犬业dhpet",
                "seo_keywords": "东辉犬业dhpet,成都市东辉犬业dhpet,成都市东辉犬业dhpet犬舍",
                "seo_description": "始创于2013年，历经宠物实体店、大型繁育养殖基地，现今已是西南地区最强精品活体宠物批发平台，整合了西南地区、港澳台等50余家实力犬舍资源，以尖端的繁育技术、丰富的繁育经验、专业的市场营销及完善的售后服务体系，为广大消费者及商家提供高品质有保障且稳定的宠物活体货源",
                "admin_id": "1",
                "update_admin_id": "8",
                "phone": "18683789078",
                "service_tag_ids": "32,16",
                "service_tags": "犬舍,宠物用品",
                "picture": "http://img.petshow.cc/pet_show/2015_07/e51452b19637411d786ee1ba0ae333d7.jpg",
                "latitude": "30.65308134594379700",
                "longitude": "104.19767366029892000",
                "province": "四川省",
                "city": "成都市",
                "district": "龙泉驿区",
                "street": "成洛大道",
                "street_number": "",
                "formatted_address": "十陵镇成洛大道明蜀新村",
                "surround": "",
                "business_hour": "10:00-21:00",
                "level": "35",
                "source": "http://m.dianping.com/shop/22421537",
                "intro": "始创于2013年，历经宠物实体店、大型繁育养殖基地，现今已是西南地区最强精品活体宠物批发平台，整合了西南地区、港澳台等50余家实力犬舍资源，以尖端的繁育技术、丰富的繁育经验、专业的市场营销及完善的售后服务体系，为广大消费者及商家提供高品质有保障且稳定的宠物活体货源",
                "is_delete": "0",
                "create_time": "2015-07-06 10:02:44",
                "update_time": "2015-07-29 11:04:59"
            },
            {
                "id": "6334",
                "name": "尚宠销售部",
                "seo_keywords": "尚宠销售部,成都市尚宠销售部,成都市尚宠销售部犬舍",
                "seo_description": "成都市锦江区莲花西路289号尚宠销售部犬舍",
                "admin_id": "1",
                "update_admin_id": "8",
                "phone": "13540318830",
                "service_tag_ids": "32,16,1",
                "service_tags": "犬舍,宠物用品,店铺",
                "picture": "http://img.petshow.cc/pet_show/2015_09/2489c7f20b59651c262add2a7544c1da.jpg",
                "latitude": "30.64546100000000000",
                "longitude": "104.10525300000000000",
                "province": "四川省",
                "city": "成都市",
                "district": "锦江区",
                "street": "莲花西路",
                "street_number": "莲花西路289号",
                "formatted_address": "莲花西路289号",
                "surround": "天香仁和酒楼,惠友便民店",
                "business_hour": "早上10点30到晚上9点30",
                "level": "30",
                "source": "http://m.dianping.com/shop/13796838",
                "intro": "成都市锦江区莲花西路289号尚宠销售部",
                "is_delete": "0",
                "create_time": "2015-07-06 10:02:44",
                "update_time": "2015-07-29 11:04:59"
            },
            {
                "id": "6198",
                "name": "飞腾宠物会所",
                "seo_keywords": "飞腾宠物会所,成都市飞腾宠物会所,成都市飞腾宠物会所其他犬舍",
                "seo_description": "飞腾宠物会所，是国内最豪华的宠物繁殖中心之一。。狗狗有泰迪熊、比熊犬、拉布拉多犬、哈士奇、阿拉斯加犬、边境牧羊犬、英国斗牛犬、德国牧羊犬、萨摩耶、雪纳瑞、金毛犬、法国斗牛犬、都是经过精心繁育的，健康质保！对爱狗的我们来说，经营这项事业，绝对需要高度的职业道德，更需要一颗爱心。",
                "admin_id": "1",
                "update_admin_id": "8",
                "phone": "13688333690",
                "service_tag_ids": "32,16,21,178,24",
                "service_tags": "犬舍,宠物用品,洗澡,零食,狗粮",
                "picture": "http://img.petshow.cc/pet_show/2015_07/03c61565578d15aaa500b5b5207b6ad4.jpg",
                "latitude": "30.66511100000000000",
                "longitude": "104.12516200000000000",
                "province": "四川省",
                "city": "成都市",
                "district": "成华区",
                "street": "杉板桥南一路",
                "street_number": "杉板桥南一路181号",
                "formatted_address": "杉板桥南一路181号",
                "surround": "锦绣东方,舞东风超市,中国电信",
                "business_hour": "",
                "level": "30",
                "source": "http://m.dianping.com/shop/17795332",
                "intro": "飞腾宠物会所，是国内最豪华的宠物繁殖中心之一。。狗狗有泰迪熊、比熊犬、拉布拉多犬、哈士奇、阿拉斯加犬、边境牧羊犬、英国斗牛犬、德国牧羊犬、萨摩耶、雪纳瑞、金毛犬、法国斗牛犬、都是经过精心繁育的，健康质保！对爱狗的我们来说，经营这项事业，绝对需要高度的职业道德，更需要一颗爱心。",
                "is_delete": "0",
                "create_time": "2015-07-06 10:02:41",
                "update_time": "2015-07-29 11:04:59"
            },
            {
                "id": "6111",
                "name": "晨光博美犬舍",
                "seo_keywords": "晨光博美犬舍,杭州晨光博美犬舍,杭州犬舍",
                "seo_description": "晨光博美犬舍是家庭犬舍形式养殖的纯种博美犬繁育基地",
                "admin_id": "1",
                "update_admin_id": "5",
                "phone": "13777880807",
                "service_tag_ids": "32",
                "service_tags": "犬舍",
                "picture": "http://img.petshow.cc/pet_show/2015_07/1900f46fc8db53e1e211ea5324af352c.jpg",
                "latitude": "359.72052908556424000",
                "longitude": "359.85514115249345000",
                "province": "浙江省",
                "city": "杭州市",
                "district": "瑞安",
                "street": "",
                "street_number": "",
                "formatted_address": "仙降镇 （任何高速路段至瑞安市飞云收费站下 ）",
                "surround": "",
                "business_hour": "尚无营业时间",
                "level": "30",
                "source": "http://m.dianping.com/shop/4695712",
                "intro": "晨光博美犬舍是家庭犬舍形式养殖的纯种博美犬繁育基地",
                "is_delete": "0",
                "create_time": "2015-07-06 10:02:39",
                "update_time": "2015-07-29 11:04:59"
            },
            {
                "id": "6074",
                "name": "贵宾犬舍",
                "seo_keywords": "贵宾犬舍,杭州贵宾犬舍,杭州犬舍",
                "seo_description": "杭州犬舍贵宾犬舍是一家专为宠物服务的店铺",
                "admin_id": "1",
                "update_admin_id": "5",
                "phone": "057189180559",
                "service_tag_ids": "32",
                "service_tags": "犬舍",
                "picture": "http://img.petshow.cc/pet_show/2015_07/6b1e21000dd42bdd4f79d0be7b15ecdf.png",
                "latitude": "30.42379500000000000",
                "longitude": "120.31223900000000000",
                "province": "浙江省",
                "city": "杭州市",
                "district": "余杭区",
                "street": "",
                "street_number": "",
                "formatted_address": "临平藕花洲大街75-77号（近国家电网）",
                "surround": "中山花苑,国家电网",
                "business_hour": "尚无营业时间",
                "level": "30",
                "source": "http://m.dianping.com/shop/6161276",
                "intro": "",
                "is_delete": "0",
                "create_time": "2015-07-06 10:02:38",
                "update_time": "2015-07-29 11:04:59"
            },
            {
                "id": "6047",
                "name": "雯雯泰迪",
                "seo_keywords": "雯雯泰迪,杭州雯雯泰迪,杭州犬舍",
                "seo_description": "杭州犬舍雯雯泰迪是一家专为宠物狗服务的犬舍",
                "admin_id": "1",
                "update_admin_id": "5",
                "phone": "",
                "service_tag_ids": "32",
                "service_tags": "犬舍",
                "picture": "http://img.petshow.cc/pet_show/2015_07/629091c90bb1604f83c01ea1a75093e1.jpg",
                "latitude": "30.31205548079229600",
                "longitude": "120.17095536421326000",
                "province": "浙江省",
                "city": "杭州市",
                "district": "下城区",
                "street": "",
                "street_number": "",
                "formatted_address": "东新路（近石祥路）",
                "surround": "蔚蓝国际,天依便利超市",
                "business_hour": "8.30~10.00",
                "level": "30",
                "source": "http://m.dianping.com/shop/9316047",
                "intro": "",
                "is_delete": "0",
                "create_time": "2015-07-06 10:02:38",
                "update_time": "2015-07-29 11:04:59"
            },
            {
                "id": "5888",
                "name": "瑜伽犬舍",
                "seo_keywords": "瑜伽犬舍,杭州瑜伽犬舍,杭州宠物店铺",
                "seo_description": "杭州宠物店铺瑜伽犬舍是一家专营宠物的店铺",
                "admin_id": "1",
                "update_admin_id": "5",
                "phone": "13777855171",
                "service_tag_ids": "32",
                "service_tags": "犬舍",
                "picture": "http://img.petshow.cc/pet_show/2015_07/afa9349d4731f9a65823afa0881957cd.jpg",
                "latitude": "30.30548816778149800",
                "longitude": "120.18833733743031000",
                "province": "浙江省",
                "city": "杭州市",
                "district": "下城区",
                "street": "",
                "street_number": "",
                "formatted_address": "石桥路近农都市场站（近农都市场）",
                "surround": "好友多超市,世纪华联",
                "business_hour": "10:00 -- 22:00",
                "level": "30",
                "source": "http://m.dianping.com/shop/8057665",
                "intro": "",
                "is_delete": "0",
                "create_time": "2015-07-06 10:02:33",
                "update_time": "2015-07-29 11:04:59"
            },
            {
                "id": "5886",
                "name": "辉煌博美犬舍",
                "seo_keywords": "辉煌博美犬舍,杭州辉煌博美犬舍,杭州宠物店铺",
                "seo_description": "杭州宠物店铺辉煌博美犬舍是一家博美专卖店铺",
                "admin_id": "1",
                "update_admin_id": "5",
                "phone": "",
                "service_tag_ids": "32",
                "service_tags": "犬舍",
                "picture": "http://img.petshow.cc/pet_show/2015_07/b3690131827d0503e488d8b19d723ad4.jpg",
                "latitude": "30.32174551202759000",
                "longitude": "120.07740675233990000",
                "province": "浙江省",
                "city": "杭州市",
                "district": "西湖区",
                "street": "",
                "street_number": "",
                "formatted_address": "三墩",
                "surround": "",
                "business_hour": "8点-22点",
                "level": "35",
                "source": "http://m.dianping.com/shop/4271678",
                "intro": "",
                "is_delete": "0",
                "create_time": "2015-07-06 10:02:33",
                "update_time": "2015-07-29 11:04:59"
            },
            {
                "id": "5692",
                "name": "德客犬业 (龙岗店)",
                "seo_keywords": "德客犬业,深圳德客犬业,深圳犬舍",
                "seo_description": "德客犬业是深圳龙岗区一家犬舍。",
                "admin_id": "1",
                "update_admin_id": "3",
                "phone": "",
                "service_tag_ids": "32",
                "service_tags": "犬舍",
                "picture": "http://img.petshow.cc/pet_show/2015_11/310810654bacf25f07862e55787f67a9.jpg",
                "latitude": "22.71709633181044000",
                "longitude": "114.24521519698300000",
                "province": "广东省",
                "city": "深圳市",
                "district": "龙岗区",
                "street": "深惠路",
                "street_number": "582号",
                "formatted_address": "深惠路龙岗段582号",
                "surround": "龙岗地质勘查局,龙岗街道电视站",
                "business_hour": "尚无营业时间",
                "level": "30",
                "source": "http://m.dianping.com/shop/16919534",
                "intro": "",
                "is_delete": "0",
                "create_time": "2015-07-06 10:02:28",
                "update_time": "2015-07-29 11:04:59"
            },
            {
                "id": "5553",
                "name": "陈家柴柴犬犬舍",
                "seo_keywords": "陈家柴柴犬犬舍,深圳陈家柴柴犬犬舍,深圳光明新区犬舍",
                "seo_description": "陈家柴柴犬犬舍是深圳光明新区一家犬舍。",
                "admin_id": "1",
                "update_admin_id": "3",
                "phone": "18680345675",
                "service_tag_ids": "32",
                "service_tags": "犬舍",
                "picture": "http://img.petshow.cc/pet_show/2015_08/df71b90ec67a0c93e683d170959458b1.jpg",
                "latitude": "22.76638000000000000",
                "longitude": "113.94236000000000000",
                "province": "广东省",
                "city": "深圳市",
                "district": "光明新区",
                "street": "",
                "street_number": "",
                "formatted_address": "迳口社区",
                "surround": "深圳市光明派出所,乐农庄园",
                "business_hour": "尚无营业时间",
                "level": "30",
                "source": "http://m.dianping.com/shop/13797904",
                "intro": "",
                "is_delete": "0",
                "create_time": "2015-07-06 10:02:25",
                "update_time": "2015-08-05 16:36:57"
            },
            {
                "id": "5463",
                "name": "犬心犬意",
                "seo_keywords": "犬舍,犬心犬意,深圳犬心犬意犬舍",
                "seo_description": "广东深圳犬心犬意",
                "admin_id": "1",
                "update_admin_id": "10",
                "phone": "075528447741",
                "service_tag_ids": "32,24,195,16",
                "service_tags": "犬舍,狗粮,宠物售卖,宠物用品",
                "picture": "http://img.petshow.cc/pet_show/2015_11/e3430e31af0d9b31e33235c67101b012.jpg",
                "latitude": "22.63197400000000000",
                "longitude": "114.11865100000000000",
                "province": "广东省",
                "city": "深圳市",
                "district": "龙岗区",
                "street": "布龙公路",
                "street_number": "",
                "formatted_address": "布龙公路中海怡翠山庄商业楼19栋",
                "surround": "泽锋汽车",
                "business_hour": "尚无营业时间",
                "level": "32",
                "source": "http://m.dianping.com/shop/10804239",
                "intro": "",
                "is_delete": "0",
                "create_time": "2015-07-06 10:02:24",
                "update_time": "2015-07-29 15:32:19"
            },
            {
                "id": "5409",
                "name": "名犬廊",
                "seo_keywords": "犬舍,名犬廊,深圳名犬廊",
                "seo_description": "广东深圳名犬廊",
                "admin_id": "1",
                "update_admin_id": "10",
                "phone": "18688752525",
                "service_tag_ids": "32,21,16,24,195",
                "service_tags": "犬舍,洗澡,宠物用品,狗粮,宠物售卖",
                "picture": "http://img.petshow.cc/pet_show/2015_11/835202c8941e8eec185c1cb994dc5fbc.jpg",
                "latitude": "22.55610600000000000",
                "longitude": "114.13431800000000000",
                "province": "广东省",
                "city": "深圳市",
                "district": "罗湖区",
                "street": "中兴路68号",
                "street_number": "中兴路68号",
                "formatted_address": "中兴路68号",
                "surround": "文化公园",
                "business_hour": "尚无营业时间",
                "level": "32",
                "source": "http://m.dianping.com/shop/14665667",
                "intro": "",
                "is_delete": "0",
                "create_time": "2015-07-06 10:02:23",
                "update_time": "2015-07-29 11:04:59"
            },
            {
                "id": "5250",
                "name": "扬帆犬舍",
                "seo_keywords": "犬舍,扬帆犬舍",
                "seo_description": "广东省深圳市扬帆犬舍",
                "admin_id": "1",
                "update_admin_id": "10",
                "phone": "13717131267 ",
                "service_tag_ids": "32,21,6,16",
                "service_tags": "犬舍,洗澡,寄养,宠物用品",
                "picture": "http://img.petshow.cc/pet_show/2015_09/a6c2ce3538ae64f03ea3da01dcb38cc8.jpg",
                "latitude": "22.52860900000000000",
                "longitude": "114.06799200000000000",
                "province": "广东省",
                "city": "深圳市",
                "district": "福田区",
                "street": "",
                "street_number": "",
                "formatted_address": "福田区皇岗新村",
                "surround": "云顶学校",
                "business_hour": "营业时间 周一到周日早上9点-晚上10点",
                "level": "30",
                "source": "http://m.dianping.com/shop/10660529",
                "intro": "扬帆犬业成立于2005年 ，位于广东省汕头市，自有土地100亩，做为永久繁殖地   基地依山靠水，院内冬暖夏凉，树木成阴，后山有地500亩，能保狗有足够的运动，良好成长！我们有着丰富的驯养经验，是国内最早专业繁殖名犬的FCI注册犬舍！也是国内最早引进原产地种犬的的犬舍！我们不远万里，不惜重金先后从意大利，俄罗斯，乌克兰，美国等国引进高水平的赛级种犬，为了您能拥有血统纯正训练有素的赛级名犬，我们将不懈的努力！！！",
                "is_delete": "0",
                "create_time": "2015-07-06 10:02:19",
                "update_time": "2015-07-29 11:04:59"
            },
            {
                "id": "5107",
                "name": "爱犬之家狗场有限公司",
                "seo_keywords": "爱犬之家狗场有限公司,广州市爱犬之家狗场有限公司,广州市宠物犬舍",
                "seo_description": "广州市最好的宠物犬舍是爱犬之家狗场有限公司！",
                "admin_id": "1",
                "update_admin_id": "4",
                "phone": "02085773220",
                "service_tag_ids": "32",
                "service_tags": "犬舍",
                "picture": "http://img.petshow.cc/pet_show/2015_10/06a339ee3797826ba15f3abbb58d5f41.jpg",
                "latitude": "23.11917600000000000",
                "longitude": "113.21545000000000000",
                "province": "广东省",
                "city": "广州市",
                "district": "荔湾区",
                "street": "",
                "street_number": "",
                "formatted_address": "窖口客运站芳兴路",
                "surround": "雅研花集",
                "business_hour": "早上8:30-晚上10:00",
                "level": "0",
                "source": "http://m.dianping.com/shop/13668493",
                "intro": "",
                "is_delete": "0",
                "create_time": "2015-07-06 10:02:15",
                "update_time": "2015-07-29 11:04:59"
            },
            {
                "id": "5106",
                "name": "广东酷派犬业养殖公司",
                "seo_keywords": "广东酷派犬业养殖公司,广州市广东酷派犬业养殖公司,广州市宠物犬舍",
                "seo_description": "广州酷派宠物养殖基地长期供应世界各类宠物狗： 泰迪熊 萨摩耶、英国古代牧羊犬、金毛巡回犬、拉布拉多犬、阿拉斯加雪橇犬、西伯利亚雪橇犬（哈士奇）、苏格兰牧羊犬、德国牧羊犬、罗威纳、边境牧羊犬、博美犬、吉娃娃、西高地、松狮犬、杜宾犬、威尔士柯基犬、日本银狐、、雪那瑞、比熊贵宾（泰迪熊）、约克夏等40余个品种！欢迎各位爱狗朋友选购!\n本犬场出售的各类世界名犬，疫苗均已接种荷兰英特威进口2联疫苗 .两个月以上的接种2联或4联及6联疫苗,驱虫3次。,保证健康,全场数百条种犬均由国内外引进，品质优良，专业喂养，精心繁殖，血统纯正，毛色好，品相好，现有宝宝出售，每种品种的狗宝宝有 1-3窝 可以选择， 我们每窝宝宝的爸爸妈妈您都可以看到，再也不用为品种问题而担心。本人以诚信经营为本，信誉第一为原则，保证您满意为宗旨。选择了我们你就选择了放心！本犬场有40多个品种的幼犬，由专业人员为您详细介绍，给你推荐饲养最好的品种，做到让你满意！",
                "admin_id": "1",
                "update_admin_id": "4",
                "phone": "13602299335",
                "service_tag_ids": "32",
                "service_tags": "犬舍",
                "picture": "http://img.petshow.cc/pet_show/2015_10/45500802353f867502f22485ea2fc1b8.jpg",
                "latitude": "23.11857800000000000",
                "longitude": "113.21503400000000000",
                "province": "广东省",
                "city": "广州市",
                "district": "越秀区",
                "street": "",
                "street_number": "",
                "formatted_address": "窖口客运站旁边",
                "surround": "地铁5号线终点站A1出口",
                "business_hour": "8:00-22:00",
                "level": "0",
                "source": "http://m.dianping.com/shop/13853068",
                "intro": "广州酷派宠物养殖基地长期供应世界各类宠物狗： 泰迪熊 萨摩耶、英国古代牧羊犬、金毛巡回犬、拉布拉多犬、阿拉斯加雪橇犬、西伯利亚雪橇犬（哈士奇）、苏格兰牧羊犬、德国牧羊犬、罗威纳、边境牧羊犬、博美犬、吉娃娃、西高地、松狮犬、杜宾犬、威尔士柯基犬、日本银狐、、雪那瑞、比熊贵宾（泰迪熊）、约克夏等40余个品种！欢迎各位爱狗朋友选购!\n本犬场出售的各类世界名犬，疫苗均已接种荷兰英特威进口2联疫苗 .两个月以上的接种2联或4联及6联疫苗,驱虫3次。,保证健康,全场数百条种犬均由国内外引进，品质优良，专业喂养，精心繁殖，血统纯正，毛色好，品相好，现有宝宝出售，每种品种的狗宝宝有 1-3窝 可以选择， 我们每窝宝宝的爸爸妈妈您都可以看到，再也不用为品种问题而担心。本人以诚信经营为本，信誉第一为原则，保证您满意为宗旨。选择了我们你就选择了放心！本犬场有40多个品种的幼犬，由专业人员为您详细介绍，给你推荐饲养最好的品种，做到让你满意！\n出售的狗狗均有绝对的健康及血统保证。售出狗狗包细小和犬瘟。如有细小和犬温包换同等价位的狗狗。相信我们就是你们最好的选择。 ",
                "is_delete": "0",
                "create_time": "2015-07-06 10:02:15",
                "update_time": "2015-07-29 11:04:59"
            },
            {
                "id": "5105",
                "name": "百强犬业",
                "seo_keywords": "百强犬业,广州市百强犬业,广州市宠物犬舍",
                "seo_description": "广州市最好的宠物犬舍是百强犬业！",
                "admin_id": "1",
                "update_admin_id": "4",
                "phone": "13760759275",
                "service_tag_ids": "32",
                "service_tags": "犬舍",
                "picture": "http://img.petshow.cc/pet_show/2015_10/f63b8c95794286822f1ba7aee122346f.jpg",
                "latitude": "23.12109500000000000",
                "longitude": "113.21489000000000000",
                "province": "广东省",
                "city": "广州市",
                "district": "荔湾区",
                "street": "",
                "street_number": "",
                "formatted_address": "窖口客运站",
                "surround": "安吉娜滘口站",
                "business_hour": "08:00-10:00",
                "level": "0",
                "source": "http://m.dianping.com/shop/8987449",
                "intro": "",
                "is_delete": "0",
                "create_time": "2015-07-06 10:02:15",
                "update_time": "2015-07-29 11:04:59"
            },
            {
                "id": "5104",
                "name": "华美狗场",
                "seo_keywords": "华美狗场,广州市华美狗场,广州市宠物犬舍",
                "seo_description": "广州市最好的宠物犬舍是华美狗场！",
                "admin_id": "1",
                "update_admin_id": "4",
                "phone": "13710714373",
                "service_tag_ids": "32",
                "service_tags": "犬舍",
                "picture": "http://img.petshow.cc/pet_show/2015_10/dd85fc8e2fa121784d3da3195dcad886.jpg",
                "latitude": "23.12991100000000000",
                "longitude": "113.22256900000000000",
                "province": "广东省",
                "city": "广州市",
                "district": "荔湾区",
                "street": "",
                "street_number": "",
                "formatted_address": "双桥路",
                "surround": "近珠江大桥",
                "business_hour": "尚无营业时间",
                "level": "0",
                "source": "http://m.dianping.com/shop/8782355",
                "intro": "",
                "is_delete": "0",
                "create_time": "2015-07-06 10:02:15",
                "update_time": "2015-07-29 11:04:59"
            },
            {
                "id": "5102",
                "name": "中诚狗场",
                "seo_keywords": "中诚狗场,广州市中诚狗场,广州市宠物犬舍",
                "seo_description": "广州市最好的宠物犬舍是中诚狗场！",
                "admin_id": "1",
                "update_admin_id": "4",
                "phone": "13539401546",
                "service_tag_ids": "32",
                "service_tags": "犬舍",
                "picture": "http://img.petshow.cc/pet_show/2015_10/cdb67732e532e520e73d7e8ff382f414.jpg",
                "latitude": "23.11472200000000000",
                "longitude": "113.21343500000000000",
                "province": "广东省",
                "city": "广州市",
                "district": "荔湾区",
                "street": "",
                "street_number": "",
                "formatted_address": "芳兴路26号",
                "surround": "近窖口客运站、广州市第四中学",
                "business_hour": "早9点-晚10点 （节假日无休）",
                "level": "0",
                "source": "http://m.dianping.com/shop/14713973",
                "intro": "",
                "is_delete": "0",
                "create_time": "2015-07-06 10:02:15",
                "update_time": "2015-07-29 11:04:59"
            },
            {
                "id": "5100",
                "name": "广州图腾犬业",
                "seo_keywords": "广州图腾犬业,广州市广州图腾犬业,广州市宠物犬舍",
                "seo_description": "广州市最好的宠物犬舍是广州图腾犬业！",
                "admin_id": "1",
                "update_admin_id": "4",
                "phone": "13609071345",
                "service_tag_ids": "32",
                "service_tags": "犬舍",
                "picture": "http://img.petshow.cc/pet_show/2015_10/97687fd341a3c3a2832bd9130afc0329.jpg",
                "latitude": "23.13213800000000000",
                "longitude": "113.22884000000000000",
                "province": "广东省",
                "city": "广州市",
                "district": "",
                "street": "",
                "street_number": "",
                "formatted_address": "裕福街100号",
                "surround": "双桥学校",
                "business_hour": "早上9点-晚上10点（节假日不休）",
                "level": "0",
                "source": "http://m.dianping.com/shop/13746310",
                "intro": "",
                "is_delete": "0",
                "create_time": "2015-07-06 10:02:15",
                "update_time": "2015-07-29 11:04:59"
            },
            {
                "id": "5099",
                "name": "英特犬业",
                "seo_keywords": "英特犬业,广州市英特犬业,广州市宠物犬舍",
                "seo_description": "广州市最好的宠物犬舍是英特犬业！",
                "admin_id": "1",
                "update_admin_id": "4",
                "phone": "15902099983",
                "service_tag_ids": "32",
                "service_tags": "犬舍",
                "picture": "http://img.petshow.cc/pet_show/2015_10/fd8223ecda841cb09d2408964f71f987.jpg",
                "latitude": "23.12311400000000000",
                "longitude": "113.21243600000000000",
                "province": "广东省",
                "city": "广州市",
                "district": "荔湾区",
                "street": "",
                "street_number": "",
                "formatted_address": "芳村滘口地铁站A1出口",
                "surround": "近龙湾广场",
                "business_hour": "早上9点至晚上10点",
                "level": "0",
                "source": "http://m.dianping.com/shop/10649320",
                "intro": "",
                "is_delete": "0",
                "create_time": "2015-07-06 10:02:15",
                "update_time": "2015-07-29 11:04:59"
            },
            {
                "id": "5098",
                "name": "百隆狗场",
                "seo_keywords": "百隆狗场,广州市百隆狗场,广州市宠物犬舍",
                "seo_description": "广州市最好的宠物犬舍是百隆狗场！",
                "admin_id": "1",
                "update_admin_id": "4",
                "phone": "15811880120",
                "service_tag_ids": "32",
                "service_tags": "犬舍",
                "picture": "http://img.petshow.cc/pet_show/2015_10/3c1d4c3317a97880b833c3e5785ce24a.jpg",
                "latitude": "23.11542000000000000",
                "longitude": "113.21115300000000000",
                "province": "广东省",
                "city": "广州市",
                "district": "荔湾区",
                "street": "",
                "street_number": "",
                "formatted_address": "芳兴路58号",
                "surround": "近岭南花卉市场、窖口客运站",
                "business_hour": "08:00-22:00",
                "level": "0",
                "source": "http://m.dianping.com/shop/9920255",
                "intro": "",
                "is_delete": "0",
                "create_time": "2015-07-06 10:02:15",
                "update_time": "2015-07-29 11:04:59"
            },
            {
                "id": "5097",
                "name": "乐信名犬繁殖狗场",
                "seo_keywords": "乐信名犬繁殖狗场,广州市乐信名犬繁殖狗场,广州市宠物犬舍",
                "seo_description": "广州市最好的宠物犬舍是乐信名犬繁殖狗场！",
                "admin_id": "1",
                "update_admin_id": "4",
                "phone": "",
                "service_tag_ids": "32",
                "service_tags": "犬舍",
                "picture": "http://img.petshow.cc/pet_show/2015_10/ca5f6f49e50f737af213d4094278564a.jpg",
                "latitude": "23.12311400000000000",
                "longitude": "113.21245600000000000",
                "province": "广东省",
                "city": "广州市",
                "district": "荔湾区",
                "street": "",
                "street_number": "",
                "formatted_address": "窖口龙湾广场",
                "surround": "近佛山南海",
                "business_hour": "早上九点— 晚上十点",
                "level": "0",
                "source": "http://m.dianping.com/shop/14897295",
                "intro": "",
                "is_delete": "0",
                "create_time": "2015-07-06 10:02:15",
                "update_time": "2015-07-29 11:04:59"
            },
            {
                "id": "5095",
                "name": "威龙宠物繁殖场",
                "seo_keywords": "威龙宠物繁殖场,广州市威龙宠物繁殖场,广州市宠物犬舍",
                "seo_description": "广州市最好的宠物犬舍是威龙宠物繁殖场！",
                "admin_id": "1",
                "update_admin_id": "4",
                "phone": "13699703139",
                "service_tag_ids": "32",
                "service_tags": "犬舍",
                "picture": "http://img.petshow.cc/pet_show/2015_11/368261ed9317951bdd3f8744e3003e3e.jpg",
                "latitude": "23.12311400000000000",
                "longitude": "113.21245600000000000",
                "province": "广东省",
                "city": "广州市",
                "district": "荔湾区",
                "street": "",
                "street_number": "",
                "formatted_address": "龙湾广场",
                "surround": "广州美好公寓",
                "business_hour": "10：00-22：00",
                "level": "0",
                "source": "http://m.dianping.com/shop/15872890",
                "intro": "",
                "is_delete": "0",
                "create_time": "2015-07-06 10:02:15",
                "update_time": "2015-07-29 11:04:59"
            },
            {
                "id": "5094",
                "name": "金霸养殖场",
                "seo_keywords": "金霸养殖场,广州市金霸养殖场,广州市宠物犬舍",
                "seo_description": "广州市最好的宠物犬舍是金霸养殖场！",
                "admin_id": "1",
                "update_admin_id": "4",
                "phone": "13433966359",
                "service_tag_ids": "32",
                "service_tags": "犬舍",
                "picture": "http://img.petshow.cc/pet_show/2015_11/4fc81f729e4db69e400287496c382b50.jpg",
                "latitude": "23.11857800000000000",
                "longitude": "113.21503400000000000",
                "province": "广东省",
                "city": "广州市",
                "district": "荔湾区",
                "street": "",
                "street_number": "",
                "formatted_address": "窖口客运站滘口站A1出口",
                "surround": "近五号线地铁终点站",
                "business_hour": "早上7点营业到晚上11点",
                "level": "0",
                "source": "http://m.dianping.com/shop/18479231",
                "intro": "",
                "is_delete": "0",
                "create_time": "2015-07-06 10:02:15",
                "update_time": "2015-07-29 11:04:59"
            },
            {
                "id": "5093",
                "name": "世股狗场",
                "seo_keywords": "世股狗场,广州市世股狗场,广州市宠物犬舍",
                "seo_description": "广州市最好的宠物犬舍是世股狗场！",
                "admin_id": "1",
                "update_admin_id": "4",
                "phone": "15918821558",
                "service_tag_ids": "32",
                "service_tags": "犬舍",
                "picture": "http://img.petshow.cc/pet_show/2015_11/a15cc86f790924509fe1be5b590d6d56.jpg",
                "latitude": "23.11545300000000000",
                "longitude": "113.21136900000000000",
                "province": "广东省",
                "city": "广州市",
                "district": "荔湾区",
                "street": "",
                "street_number": "",
                "formatted_address": "芳兴路120",
                "surround": "逸彩新世界",
                "business_hour": "08:00-22:00",
                "level": "0",
                "source": "http://m.dianping.com/shop/19116352",
                "intro": "",
                "is_delete": "0",
                "create_time": "2015-07-06 10:02:15",
                "update_time": "2015-07-29 11:04:59"
            },
            {
                "id": "5090",
                "name": "华腾狗场纯种狗繁殖中心",
                "seo_keywords": "华腾狗场纯种狗繁殖中心,广州市华腾狗场纯种狗繁殖中心,广州市宠物犬舍",
                "seo_description": "广州市最好的宠物犬舍是华腾狗场纯种狗繁殖中心！",
                "admin_id": "1",
                "update_admin_id": "4",
                "phone": "15302242822",
                "service_tag_ids": "32",
                "service_tags": "犬舍",
                "picture": "http://img.petshow.cc/pet_show/2015_11/62ed7e240848409ac0ec2e98f1a7a20e.jpg",
                "latitude": "23.12521200000000000",
                "longitude": "113.32769000000000000",
                "province": "广东省",
                "city": "广州市",
                "district": "荔湾区",
                "street": "",
                "street_number": "",
                "formatted_address": "珠江新城",
                "surround": "近地铁5号线总站",
                "business_hour": "9：:00-20:00",
                "level": "0",
                "source": "http://m.dianping.com/shop/21724809",
                "intro": "",
                "is_delete": "0",
                "create_time": "2015-07-06 10:02:15",
                "update_time": "2015-07-29 11:04:59"
            }
        ],
        "page_data": {
            "page": 1,
            "page_total": 8,
            "data_total": 375,
            "limit": "LIMIT 0, 50",
            "page_html": ""
        }
    }
}